[
  {
    "city": "Kyiv",
    "lat": "50.4500",
    "lng": "30.5236",
    "country": "Ukraine",
    "iso2": "UA",
    "admin_name": "Kyyiv, Misto",
    "capital": "primary",
    "population": "2963199",
    "population_proper": "2963199",
    "translations": {
      "en": "Kyiv",
      "ru": "Киев",
      "uk": "Київ"
    }
  },
  {
    "city": "Kharkiv",
    "lat": "50.0000",
    "lng": "36.2292",
    "country": "Ukraine",
    "iso2": "UA",
    "admin_name": "Kharkivs’ka Oblast’",
    "capital": "admin",
    "population": "1446107",
    "population_proper": "1446107",
    "translations": {
      "en": "Kharkiv",
      "ru": "Харьков",
      "uk": "Харків"
    }
  },
  {
    "city": "Odesa",
    "lat": "46.4775",
    "lng": "30.7326",
    "country": "Ukraine",
    "iso2": "UA",
    "admin_name": "Odes’ka Oblast’",
    "capital": "admin",
    "population": "1017699",
    "population_proper": "1017699",
    "translations": {
      "en": "Odesa",
      "ru": "Одесса",
      "uk": "Одеса"
    }
  },
  {
    "city": "Dnipro",
    "lat": "48.4500",
    "lng": "34.9833",
    "country": "Ukraine",
    "iso2": "UA",
    "admin_name": "Dnipropetrovs’ka Oblast’",
    "capital": "admin",
    "population": "1002111",
    "population_proper": "1002111",
    "translations": {
      "en": "Dnipro",
      "ru": "Днепр",
      "uk": "Дніпро"
    }
  },
  {
    "city": "Donetsk",
    "lat": "48.0089",
    "lng": "37.8042",
    "country": "Ukraine",
    "iso2": "UA",
    "admin_name": "Donets’ka Oblast’",
    "capital": "admin",
    "population": "929063",
    "population_proper": "929063",
    "translations": {
      "en": "Donetsk",
      "ru": "Донецк",
      "uk": "Донецький"
    }
  },
  {
    "city": "Zaporizhzhia",
    "lat": "47.8378",
    "lng": "35.1383",
    "country": "Ukraine",
    "iso2": "UA",
    "admin_name": "Zaporiz’ka Oblast’",
    "capital": "admin",
    "population": "741717",
    "population_proper": "741717",
    "translations": {
      "en": "Zaporizhzhia",
      "ru": "Запорожье",
      "uk": "Запоріжжя"
    }
  },
  {
    "city": "Lviv",
    "lat": "49.8419",
    "lng": "24.0315",
    "country": "Ukraine",
    "iso2": "UA",
    "admin_name": "L’vivs’ka Oblast’",
    "capital": "admin",
    "population": "724314",
    "population_proper": "724314",
    "translations": {
      "en": "Lviv",
      "ru": "Вонзив",
      "uk": "Львів"
    }
  },
  {
    "city": "Kryvyi Rih",
    "lat": "47.9086",
    "lng": "33.3433",
    "country": "Ukraine",
    "iso2": "UA",
    "admin_name": "Dnipropetrovs’ka Oblast’",
    "capital": "minor",
    "population": "629695",
    "population_proper": "629695",
    "translations": {
      "en": "Kryvyi Rih",
      "ru": "Кривый Рог",
      "uk": "Кривий Ріг"
    }
  },
  {
    "city": "Mykolaiv",
    "lat": "46.9667",
    "lng": "32.0000",
    "country": "Ukraine",
    "iso2": "UA",
    "admin_name": "Mykolayivs’ka Oblast’",
    "capital": "admin",
    "population": "498748",
    "population_proper": "498748",
    "translations": {
      "en": "Mykolaiv",
      "ru": "Николаев",
      "uk": "Миколаїв"
    }
  },
  {
    "city": "Mariupol",
    "lat": "47.1306",
    "lng": "37.5639",
    "country": "Ukraine",
    "iso2": "UA",
    "admin_name": "Donets’ka Oblast’",
    "capital": "",
    "population": "449498",
    "population_proper": "449498",
    "translations": {
      "en": "Mariupol",
      "ru": "Мариуполь",
      "uk": "Маріуполь"
    }
  },
  {
    "city": "Sevastopol",
    "lat": "44.6000",
    "lng": "33.5333",
    "country": "Ukraine",
    "iso2": "UA",
    "admin_name": "Sevastopol’, Misto",
    "capital": "admin",
    "population": "428753",
    "population_proper": "428753",
    "translations": {
      "en": "Sevastopol",
      "ru": "Севастополь",
      "uk": "Севастополь"
    }
  },
  {
    "city": "Luhansk",
    "lat": "48.5833",
    "lng": "39.3333",
    "country": "Ukraine",
    "iso2": "UA",
    "admin_name": "Luhans’ka Oblast’",
    "capital": "admin",
    "population": "417990",
    "population_proper": "417990",
    "translations": {
      "en": "Luhansk",
      "ru": "Луганск",
      "uk": "Луганськ"
    }
  },
  {
    "city": "Vinnytsia",
    "lat": "49.2372",
    "lng": "28.4672",
    "country": "Ukraine",
    "iso2": "UA",
    "admin_name": "Vinnyts’ka Oblast’",
    "capital": "admin",
    "population": "371855",
    "population_proper": "371855",
    "translations": {
      "en": "Vinnytsia",
      "ru": "Винница",
      "uk": "Вінниця"
    }
  },
  {
    "city": "Makiivka",
    "lat": "48.0556",
    "lng": "37.9611",
    "country": "Ukraine",
    "iso2": "UA",
    "admin_name": "Donets’ka Oblast’",
    "capital": "",
    "population": "347376",
    "population_proper": "347376",
    "translations": {
      "en": "Makiivka",
      "ru": "Макивка",
      "uk": "Макіївка"
    }
  },
  {
    "city": "Simferopol",
    "lat": "44.9484",
    "lng": "34.1000",
    "country": "Ukraine",
    "iso2": "UA",
    "admin_name": "Krym, Avtonomna Respublika",
    "capital": "admin",
    "population": "341799",
    "population_proper": "341799",
    "translations": {
      "en": "Simferopol",
      "ru": "Симферополь",
      "uk": "Сімферополь"
    }
  },
  {
    "city": "Poltava",
    "lat": "49.5744",
    "lng": "34.5686",
    "country": "Ukraine",
    "iso2": "UA",
    "admin_name": "Poltavs’ka Oblast’",
    "capital": "admin",
    "population": "317847",
    "population_proper": "286588",
    "translations": {
      "en": "Poltava",
      "ru": "Полтава",
      "uk": "Полтава"
    }
  },
  {
    "city": "Chernihiv",
    "lat": "51.4939",
    "lng": "31.2947",
    "country": "Ukraine",
    "iso2": "UA",
    "admin_name": "Chernihivs’ka Oblast’",
    "capital": "admin",
    "population": "294522",
    "population_proper": "294522",
    "translations": {
      "en": "Chernihiv",
      "ru": "Чернигов",
      "uk": "Чернігів"
    }
  },
  {
    "city": "Kherson",
    "lat": "46.6333",
    "lng": "32.6000",
    "country": "Ukraine",
    "iso2": "UA",
    "admin_name": "Khersons’ka Oblast’",
    "capital": "admin",
    "population": "291428",
    "population_proper": "291428",
    "translations": {
      "en": "Kherson",
      "ru": "Херсон",
      "uk": "Херсон"
    }
  },
  {
    "city": "Cherkasy",
    "lat": "49.4444",
    "lng": "32.0597",
    "country": "Ukraine",
    "iso2": "UA",
    "admin_name": "Cherkas’ka Oblast’",
    "capital": "admin",
    "population": "276360",
    "population_proper": "276360",
    "translations": {
      "en": "Cherkasy",
      "ru": "Черкассы",
      "uk": "Черкаси"
    }
  },
  {
    "city": "Khmelnytskyi",
    "lat": "49.4200",
    "lng": "27.0000",
    "country": "Ukraine",
    "iso2": "UA",
    "admin_name": "Khmel’nyts’ka Oblast’",
    "capital": "admin",
    "population": "274176",
    "population_proper": "274176",
    "translations": {
      "en": "Khmelnytskyi",
      "ru": "Хмельницкий",
      "uk": "Хмельницький"
    }
  },
  {
    "city": "Zhytomyr",
    "lat": "50.2544",
    "lng": "28.6578",
    "country": "Ukraine",
    "iso2": "UA",
    "admin_name": "Zhytomyrs’ka Oblast’",
    "capital": "admin",
    "population": "266936",
    "population_proper": "266936",
    "translations": {
      "en": "Zhytomyr",
      "ru": "Житомир",
      "uk": "Житомир"
    }
  },
  {
    "city": "Chernivtsi",
    "lat": "48.2908",
    "lng": "25.9344",
    "country": "Ukraine",
    "iso2": "UA",
    "admin_name": "Chernivets’ka Oblast’",
    "capital": "admin",
    "population": "266550",
    "population_proper": "266550",
    "translations": {
      "en": "Chernivtsi",
      "ru": "Черновцы",
      "uk": "Чернівці"
    }
  },
  {
    "city": "Sumy",
    "lat": "50.9068",
    "lng": "34.7992",
    "country": "Ukraine",
    "iso2": "UA",
    "admin_name": "Sums’ka Oblast’",
    "capital": "admin",
    "population": "265758",
    "population_proper": "265758",
    "translations": {
      "en": "Sumy",
      "ru": "Сумы",
      "uk": "Суми"
    }
  },
  {
    "city": "Horlivka",
    "lat": "48.3336",
    "lng": "38.0925",
    "country": "Ukraine",
    "iso2": "UA",
    "admin_name": "Donets’ka Oblast’",
    "capital": "minor",
    "population": "256714",
    "population_proper": "256714",
    "translations": {
      "en": "Horlivka",
      "ru": "Горловка",
      "uk": "Горлівка"
    }
  },
  {
    "city": "Rivne",
    "lat": "50.6197",
    "lng": "26.2514",
    "country": "Ukraine",
    "iso2": "UA",
    "admin_name": "Rivnens’ka Oblast’",
    "capital": "admin",
    "population": "245630",
    "population_proper": "245630",
    "translations": {
      "en": "Rivne",
      "ru": "Ровна",
      "uk": "Рідний"
    }
  },
  {
    "city": "Ivano-Frankivsk",
    "lat": "48.9228",
    "lng": "24.7106",
    "country": "Ukraine",
    "iso2": "UA",
    "admin_name": "Ivano-Frankivs’ka Oblast’",
    "capital": "admin",
    "population": "236602",
    "population_proper": "236602",
    "translations": {
      "en": "Ivano-Frankivsk",
      "ru": "Ивано-Франковск",
      "uk": "Івано-Франківськ"
    }
  },
  {
    "city": "Kamianske",
    "lat": "48.5076",
    "lng": "34.6132",
    "country": "Ukraine",
    "iso2": "UA",
    "admin_name": "Dnipropetrovs’ka Oblast’",
    "capital": "minor",
    "population": "235066",
    "population_proper": "235066",
    "translations": {
      "en": "Kamianske",
      "ru": "Камясская",
      "uk": "Кам'янський"
    }
  },
  {
    "city": "Kremenchuk",
    "lat": "49.0775",
    "lng": "33.4239",
    "country": "Ukraine",
    "iso2": "UA",
    "admin_name": "Poltavs’ka Oblast’",
    "capital": "minor",
    "population": "234073",
    "population_proper": "234073",
    "translations": {
      "en": "Kremenchuk",
      "ru": "Кременчук",
      "uk": "Кременчук"
    }
  },
  {
    "city": "Kropyvnytskyi",
    "lat": "48.5103",
    "lng": "32.2667",
    "country": "Ukraine",
    "iso2": "UA",
    "admin_name": "Kirovohrads’ka Oblast’",
    "capital": "admin",
    "population": "227413",
    "population_proper": "227413",
    "translations": {
      "en": "Kropyvnytskyi",
      "ru": "Кропивницкий",
      "uk": "Кропивницький"
    }
  },
  {
    "city": "Ternopil",
    "lat": "49.5667",
    "lng": "25.6000",
    "country": "Ukraine",
    "iso2": "UA",
    "admin_name": "Ternopil’s’ka Oblast’",
    "capital": "admin",
    "population": "218653",
    "population_proper": "218653",
    "translations": {
      "en": "Ternopil",
      "ru": "Тернополь",
      "uk": "Тернопіль"
    }
  },
  {
    "city": "Lutsk",
    "lat": "50.7478",
    "lng": "25.3244",
    "country": "Ukraine",
    "iso2": "UA",
    "admin_name": "Volyns’ka Oblast’",
    "capital": "admin",
    "population": "216505",
    "population_proper": "216505",
    "translations": {
      "en": "Lutsk",
      "ru": "Луцк",
      "uk": "Луцьк"
    }
  },
  {
    "city": "Bila Tserkva",
    "lat": "49.7956",
    "lng": "30.1167",
    "country": "Ukraine",
    "iso2": "UA",
    "admin_name": "Kyyivs’ka Oblast’",
    "capital": "minor",
    "population": "208944",
    "population_proper": "208944",
    "translations": {
      "en": "Bila Tserkva",
      "ru": "Била Церква",
      "uk": "Біла Церква"
    }
  },
  {
    "city": "Kramatorsk",
    "lat": "48.7208",
    "lng": "37.5556",
    "country": "Ukraine",
    "iso2": "UA",
    "admin_name": "Donets’ka Oblast’",
    "capital": "",
    "population": "159445",
    "population_proper": "159445",
    "translations": {
      "en": "Kramatorsk",
      "ru": "Краматорск",
      "uk": "Краматорськ"
    }
  },
  {
    "city": "Melitopol",
    "lat": "46.8333",
    "lng": "35.3667",
    "country": "Ukraine",
    "iso2": "UA",
    "admin_name": "Zaporiz’ka Oblast’",
    "capital": "minor",
    "population": "154992",
    "population_proper": "154992",
    "translations": {
      "en": "Melitopol",
      "ru": "Мелитополь",
      "uk": "Мелітополь"
    }
  },
  {
    "city": "Sievierodonetsk",
    "lat": "48.9500",
    "lng": "38.4833",
    "country": "Ukraine",
    "iso2": "UA",
    "admin_name": "Luhans’ka Oblast’",
    "capital": "minor",
    "population": "150000",
    "population_proper": "150000",
    "translations": {
      "en": "Sievierodonetsk",
      "ru": "СиьеИЕердонецк",
      "uk": "Сієєродонецьк"
    }
  },
  {
    "city": "Drohobych",
    "lat": "49.3500",
    "lng": "23.5000",
    "country": "Ukraine",
    "iso2": "UA",
    "admin_name": "L’vivs’ka Oblast’",
    "capital": "minor",
    "population": "124269",
    "population_proper": "79406",
    "translations": {
      "en": "Drohobych",
      "ru": "Дрохобыч",
      "uk": "Дрогобич"
    }
  },
  {
    "city": "Khrustalnyi",
    "lat": "48.1214",
    "lng": "38.9453",
    "country": "Ukraine",
    "iso2": "UA",
    "admin_name": "Luhans’ka Oblast’",
    "capital": "",
    "population": "124000",
    "population_proper": "124000",
    "translations": {
      "en": "Khrustalnyi",
      "ru": "Хрустальный",
      "uk": "Хрустальний"
    }
  },
  {
    "city": "Uzhhorod",
    "lat": "48.6239",
    "lng": "22.2950",
    "country": "Ukraine",
    "iso2": "UA",
    "admin_name": "Zakarpats’ka Oblast’",
    "capital": "admin",
    "population": "114897",
    "population_proper": "114897",
    "translations": {
      "en": "Uzhhorod",
      "ru": "Ужгород",
      "uk": "Ужгород"
    }
  },
  {
    "city": "Berdiansk",
    "lat": "46.7598",
    "lng": "36.7845",
    "country": "Ukraine",
    "iso2": "UA",
    "admin_name": "Zaporiz’ka Oblast’",
    "capital": "minor",
    "population": "114205",
    "population_proper": "114205",
    "translations": {
      "en": "Berdiansk",
      "ru": "Бердианск",
      "uk": "Бердянськ"
    }
  },
  {
    "city": "Sloviansk",
    "lat": "48.8700",
    "lng": "37.6250",
    "country": "Ukraine",
    "iso2": "UA",
    "admin_name": "Donets’ka Oblast’",
    "capital": "",
    "population": "113196",
    "population_proper": "113196",
    "translations": {
      "en": "Sloviansk",
      "ru": "Словянск",
      "uk": "Слов'янськ"
    }
  },
  {
    "city": "Nikopol",
    "lat": "47.5772",
    "lng": "34.3575",
    "country": "Ukraine",
    "iso2": "UA",
    "admin_name": "Dnipropetrovs’ka Oblast’",
    "capital": "minor",
    "population": "112102",
    "population_proper": "112102",
    "translations": {
      "en": "Nikopol",
      "ru": "Никополь",
      "uk": "Нікополь"
    }
  },
  {
    "city": "Yevpatoriia",
    "lat": "45.2000",
    "lng": "33.3583",
    "country": "Ukraine",
    "iso2": "UA",
    "admin_name": "Krym, Avtonomna Respublika",
    "capital": "",
    "population": "106158",
    "population_proper": "106158",
    "translations": {
      "en": "Yevpatoriia",
      "ru": "ЕВПАТОРИЯ",
      "uk": "Євпаторія"
    }
  },
  {
    "city": "Pavlohrad",
    "lat": "48.5200",
    "lng": "35.8700",
    "country": "Ukraine",
    "iso2": "UA",
    "admin_name": "Dnipropetrovs’ka Oblast’",
    "capital": "minor",
    "population": "106082",
    "population_proper": "106082",
    "translations": {
      "en": "Pavlohrad",
      "ru": "Павлоград",
      "uk": "Павлоград"
    }
  },
  {
    "city": "Alchevsk",
    "lat": "48.4672",
    "lng": "38.7983",
    "country": "Ukraine",
    "iso2": "UA",
    "admin_name": "Luhans’ka Oblast’",
    "capital": "minor",
    "population": "105398",
    "population_proper": "105398",
    "translations": {
      "en": "Alchevsk",
      "ru": "Алчевск",
      "uk": "Алчевськ"
    }
  },
  {
    "city": "Konotop",
    "lat": "51.2369",
    "lng": "33.2027",
    "country": "Ukraine",
    "iso2": "UA",
    "admin_name": "Sums’ka Oblast’",
    "capital": "minor",
    "population": "103547",
    "population_proper": "91798",
    "translations": {
      "en": "Konotop",
      "ru": "Конотоп",
      "uk": "Конотоп"
    }
  },
  {
    "city": "Brovary",
    "lat": "50.5114",
    "lng": "30.7903",
    "country": "Ukraine",
    "iso2": "UA",
    "admin_name": "Kyyivs’ka Oblast’",
    "capital": "minor",
    "population": "102856",
    "population_proper": "102856",
    "translations": {
      "en": "Brovary",
      "ru": "Бешенство",
      "uk": "Броварський"
    }
  },
  {
    "city": "Kamianets-Podilskyi",
    "lat": "48.6806",
    "lng": "26.5806",
    "country": "Ukraine",
    "iso2": "UA",
    "admin_name": "Khmel’nyts’ka Oblast’",
    "capital": "minor",
    "population": "100462",
    "population_proper": "100462",
    "translations": {
      "en": "Kamianets-Podilskyi",
      "ru": "Камиан-Подильский",
      "uk": "Кам'янець-Подільський"
    }
  },
  {
    "city": "Lysychansk",
    "lat": "48.9169",
    "lng": "38.4306",
    "country": "Ukraine",
    "iso2": "UA",
    "admin_name": "Luhans’ka Oblast’",
    "capital": "",
    "population": "96161",
    "population_proper": "96161",
    "translations": {
      "en": "Lysychansk",
      "ru": "Лисичанск",
      "uk": "Лисичанський"
    }
  },
  {
    "city": "Dovzhansk",
    "lat": "48.0846",
    "lng": "39.6516",
    "country": "Ukraine",
    "iso2": "UA",
    "admin_name": "Luhans’ka Oblast’",
    "capital": "minor",
    "population": "95153",
    "population_proper": "95153",
    "translations": {
      "en": "Dovzhansk",
      "ru": "Довжанск",
      "uk": "Довжанськ"
    }
  },
  {
    "city": "Mukacheve",
    "lat": "48.4414",
    "lng": "22.7136",
    "country": "Ukraine",
    "iso2": "UA",
    "admin_name": "Zakarpats’ka Oblast’",
    "capital": "minor",
    "population": "86257",
    "population_proper": "86257",
    "translations": {
      "en": "Mukacheve",
      "ru": "Мукачев",
      "uk": "Мукачеве"
    }
  },
  {
    "city": "Uman",
    "lat": "48.7500",
    "lng": "30.2167",
    "country": "Ukraine",
    "iso2": "UA",
    "admin_name": "Cherkas’ka Oblast’",
    "capital": "minor",
    "population": "82762",
    "population_proper": "82762",
    "translations": {
      "en": "Uman",
      "ru": "Uman.",
      "uk": "Уман"
    }
  },
  {
    "city": "Yalta",
    "lat": "44.4994",
    "lng": "34.1553",
    "country": "Ukraine",
    "iso2": "UA",
    "admin_name": "Krym, Avtonomna Respublika",
    "capital": "",
    "population": "79458",
    "population_proper": "79458",
    "translations": {
      "en": "Yalta",
      "ru": "Ялта",
      "uk": "Ялта"
    }
  },
  {
    "city": "Yenakiieve",
    "lat": "48.2311",
    "lng": "38.2053",
    "country": "Ukraine",
    "iso2": "UA",
    "admin_name": "Donets’ka Oblast’",
    "capital": "",
    "population": "79348",
    "population_proper": "79348",
    "translations": {
      "en": "Yenakiieve",
      "ru": "Йенакиева",
      "uk": "Yenakiieve"
    }
  },
  {
    "city": "Shostka",
    "lat": "51.8657",
    "lng": "33.4766",
    "country": "Ukraine",
    "iso2": "UA",
    "admin_name": "Sums’ka Oblast’",
    "capital": "minor",
    "population": "76788",
    "population_proper": "76788",
    "translations": {
      "en": "Shostka",
      "ru": "Шостка",
      "uk": "Шостка"
    }
  },
  {
    "city": "Berdychiv",
    "lat": "49.8919",
    "lng": "28.6000",
    "country": "Ukraine",
    "iso2": "UA",
    "admin_name": "Zhytomyrs’ka Oblast’",
    "capital": "minor",
    "population": "76229",
    "population_proper": "76229",
    "translations": {
      "en": "Berdychiv",
      "ru": "Бердычив",
      "uk": "Бердичів"
    }
  },
  {
    "city": "Bakhmut",
    "lat": "48.6044",
    "lng": "38.0067",
    "country": "Ukraine",
    "iso2": "UA",
    "admin_name": "Donets’ka Oblast’",
    "capital": "minor",
    "population": "75798",
    "population_proper": "75798",
    "translations": {
      "en": "Bakhmut",
      "ru": "Бахмут",
      "uk": "Бахмут"
    }
  },
  {
    "city": "Stakhanov",
    "lat": "48.5472",
    "lng": "38.6361",
    "country": "Ukraine",
    "iso2": "UA",
    "admin_name": "Luhans’ka Oblast’",
    "capital": "",
    "population": "75745",
    "population_proper": "75745",
    "translations": {
      "en": "Stakhanov",
      "ru": "Стаханов",
      "uk": "Стаханов"
    }
  },
  {
    "city": "Nizhyn",
    "lat": "51.0500",
    "lng": "31.9000",
    "country": "Ukraine",
    "iso2": "UA",
    "admin_name": "Chernihivs’ka Oblast’",
    "capital": "minor",
    "population": "73283",
    "population_proper": "73283",
    "translations": {
      "en": "Nizhyn",
      "ru": "Нижин",
      "uk": "Ніжин"
    }
  },
  {
    "city": "Kostiantynivka",
    "lat": "48.5333",
    "lng": "37.7167",
    "country": "Ukraine",
    "iso2": "UA",
    "admin_name": "Donets’ka Oblast’",
    "capital": "",
    "population": "72888",
    "population_proper": "72888",
    "translations": {
      "en": "Kostiantynivka",
      "ru": "Костиантинок",
      "uk": "Костянтинівка"
    }
  },
  {
    "city": "Izmail",
    "lat": "45.3500",
    "lng": "28.8333",
    "country": "Ukraine",
    "iso2": "UA",
    "admin_name": "Odes’ka Oblast’",
    "capital": "minor",
    "population": "71594",
    "population_proper": "71594",
    "translations": {
      "en": "Izmail",
      "ru": "Измаил",
      "uk": "Ізмаїл"
    }
  },
  {
    "city": "Novomoskovsk",
    "lat": "48.6328",
    "lng": "35.2239",
    "country": "Ukraine",
    "iso2": "UA",
    "admin_name": "Dnipropetrovs’ka Oblast’",
    "capital": "minor",
    "population": "70749",
    "population_proper": "70749",
    "translations": {
      "en": "Novomoskovsk",
      "ru": "Новомосковск",
      "uk": "Новомосковськ"
    }
  },
  {
    "city": "Nova Kakhovka",
    "lat": "46.7667",
    "lng": "33.3667",
    "country": "Ukraine",
    "iso2": "UA",
    "admin_name": "Khersons’ka Oblast’",
    "capital": "",
    "population": "69280",
    "population_proper": "69280",
    "translations": {
      "en": "Nova Kakhovka",
      "ru": "Нова Каховка",
      "uk": "Нова Каховка"
    }
  },
  {
    "city": "Kovel",
    "lat": "51.2167",
    "lng": "24.7167",
    "country": "Ukraine",
    "iso2": "UA",
    "admin_name": "Volyns’ka Oblast’",
    "capital": "minor",
    "population": "69089",
    "population_proper": "69089",
    "translations": {
      "en": "Kovel",
      "ru": "Ковель",
      "uk": "Кобель"
    }
  },
  {
    "city": "Smila",
    "lat": "49.2167",
    "lng": "31.8667",
    "country": "Ukraine",
    "iso2": "UA",
    "admin_name": "Cherkas’ka Oblast’",
    "capital": "minor",
    "population": "68536",
    "population_proper": "68536",
    "translations": {
      "en": "Smila",
      "ru": "Смила",
      "uk": "Смайлик"
    }
  },
  {
    "city": "Kalush",
    "lat": "49.0442",
    "lng": "24.3597",
    "country": "Ukraine",
    "iso2": "UA",
    "admin_name": "Ivano-Frankivs’ka Oblast’",
    "capital": "minor",
    "population": "66406",
    "population_proper": "66406",
    "translations": {
      "en": "Kalush",
      "ru": "Калуш",
      "uk": "Калуш"
    }
  },
  {
    "city": "Korosten",
    "lat": "50.9500",
    "lng": "28.6500",
    "country": "Ukraine",
    "iso2": "UA",
    "admin_name": "Zhytomyrs’ka Oblast’",
    "capital": "minor",
    "population": "63525",
    "population_proper": "63525",
    "translations": {
      "en": "Korosten",
      "ru": "Коростен",
      "uk": "Коростень"
    }
  },
  {
    "city": "Pokrovsk",
    "lat": "48.2833",
    "lng": "37.1833",
    "country": "Ukraine",
    "iso2": "UA",
    "admin_name": "Donets’ka Oblast’",
    "capital": "minor",
    "population": "63437",
    "population_proper": "63437",
    "translations": {
      "en": "Pokrovsk",
      "ru": "Покровск",
      "uk": "Покровський"
    }
  },
  {
    "city": "Boryspil",
    "lat": "50.3500",
    "lng": "30.9500",
    "country": "Ukraine",
    "iso2": "UA",
    "admin_name": "Kyyivs’ka Oblast’",
    "capital": "minor",
    "population": "62281",
    "population_proper": "62281",
    "translations": {
      "en": "Boryspil",
      "ru": "Бориспил",
      "uk": "Бориспіль"
    }
  },
  {
    "city": "Kolomyia",
    "lat": "48.5167",
    "lng": "25.0333",
    "country": "Ukraine",
    "iso2": "UA",
    "admin_name": "Ivano-Frankivs’ka Oblast’",
    "capital": "minor",
    "population": "61269",
    "population_proper": "61269",
    "translations": {
      "en": "Kolomyia",
      "ru": "Коломия",
      "uk": "Коломия"
    }
  },
  {
    "city": "Rubizhne",
    "lat": "49.0167",
    "lng": "38.3667",
    "country": "Ukraine",
    "iso2": "UA",
    "admin_name": "Luhans’ka Oblast’",
    "capital": "",
    "population": "59951",
    "population_proper": "59951",
    "translations": {
      "en": "Rubizhne",
      "ru": "Рубин",
      "uk": "Рубіжне"
    }
  },
  {
    "city": "Chornomorsk",
    "lat": "46.3017",
    "lng": "30.6569",
    "country": "Ukraine",
    "iso2": "UA",
    "admin_name": "Odes’ka Oblast’",
    "capital": "",
    "population": "59800",
    "population_proper": "59800",
    "translations": {
      "en": "Chornomorsk",
      "ru": "Черноморск",
      "uk": "Чорноморськ"
    }
  },
  {
    "city": "Khartsyzk",
    "lat": "48.0333",
    "lng": "38.1500",
    "country": "Ukraine",
    "iso2": "UA",
    "admin_name": "Donets’ka Oblast’",
    "capital": "",
    "population": "59763",
    "population_proper": "59763",
    "translations": {
      "en": "Khartsyzk",
      "ru": "Харцызк",
      "uk": "Харцизк"
    }
  },
  {
    "city": "Druzhkivka",
    "lat": "48.6203",
    "lng": "37.5278",
    "country": "Ukraine",
    "iso2": "UA",
    "admin_name": "Donets’ka Oblast’",
    "capital": "",
    "population": "59400",
    "population_proper": "59400",
    "translations": {
      "en": "Druzhkivka",
      "ru": "Druzhkivka.",
      "uk": "Дружківка"
    }
  },
  {
    "city": "Stryi",
    "lat": "49.2500",
    "lng": "23.8500",
    "country": "Ukraine",
    "iso2": "UA",
    "admin_name": "L’vivs’ka Oblast’",
    "capital": "minor",
    "population": "59325",
    "population_proper": "59325",
    "translations": {
      "en": "Stryi",
      "ru": "Stryi.",
      "uk": "Стрей"
    }
  },
  {
    "city": "Bilhorod-Dnistrovskyi",
    "lat": "46.1833",
    "lng": "30.3333",
    "country": "Ukraine",
    "iso2": "UA",
    "admin_name": "Odes’ka Oblast’",
    "capital": "minor",
    "population": "57210",
    "population_proper": "57210",
    "translations": {
      "en": "Bilhorod-Dnistrovskyi",
      "ru": "Бильхород-Днестровский",
      "uk": "Білгород-Дністровський"
    }
  },
  {
    "city": "Irpin",
    "lat": "50.5167",
    "lng": "30.2500",
    "country": "Ukraine",
    "iso2": "UA",
    "admin_name": "Kyyivs’ka Oblast’",
    "capital": "",
    "population": "56806",
    "population_proper": "56806",
    "translations": {
      "en": "Irpin",
      "ru": "Ирпень",
      "uk": "Ірпін"
    }
  },
  {
    "city": "Novohrad-Volynskyi",
    "lat": "50.5833",
    "lng": "27.6333",
    "country": "Ukraine",
    "iso2": "UA",
    "admin_name": "Zhytomyrs’ka Oblast’",
    "capital": "minor",
    "population": "56288",
    "population_proper": "56288",
    "translations": {
      "en": "Novohrad-Volynskyi",
      "ru": "Новоград-Волынский",
      "uk": "Новоград-Волинський"
    }
  },
  {
    "city": "Lozova",
    "lat": "48.8892",
    "lng": "36.3161",
    "country": "Ukraine",
    "iso2": "UA",
    "admin_name": "Kharkivs’ka Oblast’",
    "capital": "minor",
    "population": "55827",
    "population_proper": "55827",
    "translations": {
      "en": "Lozova",
      "ru": "Лозова",
      "uk": "Лозова"
    }
  },
  {
    "city": "Antratsyt",
    "lat": "48.1167",
    "lng": "39.0833",
    "country": "Ukraine",
    "iso2": "UA",
    "admin_name": "Luhans’ka Oblast’",
    "capital": "",
    "population": "54640",
    "population_proper": "54640",
    "translations": {
      "en": "Antratsyt",
      "ru": "Антрацыт",
      "uk": "Antratsyt"
    }
  },
  {
    "city": "Enerhodar",
    "lat": "47.4989",
    "lng": "34.6558",
    "country": "Ukraine",
    "iso2": "UA",
    "admin_name": "Zaporiz’ka Oblast’",
    "capital": "minor",
    "population": "53567",
    "population_proper": "53567",
    "translations": {
      "en": "Enerhodar",
      "ru": "Энергодар",
      "uk": "Енергодар"
    }
  },
  {
    "city": "Pryluky",
    "lat": "50.6000",
    "lng": "32.4000",
    "country": "Ukraine",
    "iso2": "UA",
    "admin_name": "Chernihivs’ka Oblast’",
    "capital": "minor",
    "population": "53395",
    "population_proper": "53395",
    "translations": {
      "en": "Pryluky",
      "ru": "Прилуки",
      "uk": "Прілуки"
    }
  },
  {
    "city": "Novovolynsk",
    "lat": "50.7333",
    "lng": "24.1667",
    "country": "Ukraine",
    "iso2": "UA",
    "admin_name": "Volyns’ka Oblast’",
    "capital": "",
    "population": "52188",
    "population_proper": "52188",
    "translations": {
      "en": "Novovolynsk",
      "ru": "Нововолинск",
      "uk": "Нововолинськ"
    }
  },
  {
    "city": "Horishni Plavni",
    "lat": "49.0107",
    "lng": "33.6562",
    "country": "Ukraine",
    "iso2": "UA",
    "admin_name": "Poltavs’ka Oblast’",
    "capital": "",
    "population": "52167",
    "population_proper": "52167",
    "translations": {
      "en": "Horishni Plavni",
      "ru": "Horishni Plavni",
      "uk": "Horishni plavni"
    }
  },
  {
    "city": "Myrnohrad",
    "lat": "48.3022",
    "lng": "37.2614",
    "country": "Ukraine",
    "iso2": "UA",
    "admin_name": "Donets’ka Oblast’",
    "capital": "",
    "population": "50360",
    "population_proper": "50360",
    "translations": {
      "en": "Myrnohrad",
      "ru": "Мирноград",
      "uk": "Мирноград"
    }
  },
  {
    "city": "Shakhtarsk",
    "lat": "48.0333",
    "lng": "38.4833",
    "country": "Ukraine",
    "iso2": "UA",
    "admin_name": "Donets’ka Oblast’",
    "capital": "minor",
    "population": "49482",
    "population_proper": "49482",
    "translations": {
      "en": "Shakhtarsk",
      "ru": "Шахтарск",
      "uk": "Шахтарськ"
    }
  },
  {
    "city": "Okhtyrka",
    "lat": "50.3074",
    "lng": "34.9016",
    "country": "Ukraine",
    "iso2": "UA",
    "admin_name": "Sums’ka Oblast’",
    "capital": "minor",
    "population": "47971",
    "population_proper": "47971",
    "translations": {
      "en": "Okhtyrka",
      "ru": "Охтырка",
      "uk": "Охтирка"
    }
  },
  {
    "city": "Brianka",
    "lat": "48.5133",
    "lng": "38.6431",
    "country": "Ukraine",
    "iso2": "UA",
    "admin_name": "Luhans’ka Oblast’",
    "capital": "",
    "population": "47512",
    "population_proper": "47512",
    "translations": {
      "en": "Brianka",
      "ru": "Брианка",
      "uk": "Британська мова"
    }
  },
  {
    "city": "Snizhne",
    "lat": "48.0167",
    "lng": "38.7667",
    "country": "Ukraine",
    "iso2": "UA",
    "admin_name": "Donets’ka Oblast’",
    "capital": "",
    "population": "47259",
    "population_proper": "47259",
    "translations": {
      "en": "Snizhne",
      "ru": "Ньюн",
      "uk": "Снайрдне"
    }
  },
  {
    "city": "Marhanets",
    "lat": "47.6480",
    "lng": "34.6167",
    "country": "Ukraine",
    "iso2": "UA",
    "admin_name": "Dnipropetrovs’ka Oblast’",
    "capital": "minor",
    "population": "47141",
    "population_proper": "47141",
    "translations": {
      "en": "Marhanets",
      "ru": "Марханец",
      "uk": "Марганець"
    }
  },
  {
    "city": "Rovenky",
    "lat": "48.0833",
    "lng": "39.3667",
    "country": "Ukraine",
    "iso2": "UA",
    "admin_name": "Luhans’ka Oblast’",
    "capital": "",
    "population": "46734",
    "population_proper": "46734",
    "translations": {
      "en": "Rovenky",
      "ru": "Ровеньки",
      "uk": "Ровенька"
    }
  },
  {
    "city": "Fastiv",
    "lat": "50.0747",
    "lng": "29.9181",
    "country": "Ukraine",
    "iso2": "UA",
    "admin_name": "Kyyivs’ka Oblast’",
    "capital": "minor",
    "population": "45907",
    "population_proper": "45907",
    "translations": {
      "en": "Fastiv",
      "ru": "Фантазия",
      "uk": "Фаст"
    }
  },
  {
    "city": "Lubny",
    "lat": "50.0186",
    "lng": "32.9869",
    "country": "Ukraine",
    "iso2": "UA",
    "admin_name": "Poltavs’ka Oblast’",
    "capital": "minor",
    "population": "45786",
    "population_proper": "45786",
    "translations": {
      "en": "Lubny",
      "ru": "Лубны",
      "uk": "Лубний"
    }
  },
  {
    "city": "Svitlovodsk",
    "lat": "49.0833",
    "lng": "33.2500",
    "country": "Ukraine",
    "iso2": "UA",
    "admin_name": "Kirovohrads’ka Oblast’",
    "capital": "minor",
    "population": "45312",
    "population_proper": "45312",
    "translations": {
      "en": "Svitlovodsk",
      "ru": "Свитловодск",
      "uk": "Світловодськ"
    }
  },
  {
    "city": "Zhovti Vody",
    "lat": "48.3500",
    "lng": "33.5167",
    "country": "Ukraine",
    "iso2": "UA",
    "admin_name": "Dnipropetrovs’ka Oblast’",
    "capital": "",
    "population": "44766",
    "population_proper": "44766",
    "translations": {
      "en": "Zhovti Vody",
      "ru": "Жовити Воды",
      "uk": "Жовті Води"
    }
  },
  {
    "city": "Krasnodon",
    "lat": "48.3000",
    "lng": "39.7333",
    "country": "Ukraine",
    "iso2": "UA",
    "admin_name": "Luhans’ka Oblast’",
    "capital": "",
    "population": "43683",
    "population_proper": "43683",
    "translations": {
      "en": "Krasnodon",
      "ru": "Краснодон",
      "uk": "Краснодон"
    }
  },
  {
    "city": "Shepetivka",
    "lat": "50.1833",
    "lng": "27.0667",
    "country": "Ukraine",
    "iso2": "UA",
    "admin_name": "Khmel’nyts’ka Oblast’",
    "capital": "minor",
    "population": "41415",
    "population_proper": "41415",
    "translations": {
      "en": "Shepetivka",
      "ru": "Шепетивка",
      "uk": "Шепетівка"
    }
  },
  {
    "city": "Vyshneve",
    "lat": "50.3833",
    "lng": "30.3667",
    "country": "Ukraine",
    "iso2": "UA",
    "admin_name": "Kyyivs’ka Oblast’",
    "capital": "",
    "population": "40919",
    "population_proper": "40919",
    "translations": {
      "en": "Vyshneve",
      "ru": "Вышко",
      "uk": "Вишневе"
    }
  },
  {
    "city": "Romny",
    "lat": "50.7428",
    "lng": "33.4879",
    "country": "Ukraine",
    "iso2": "UA",
    "admin_name": "Sums’ka Oblast’",
    "capital": "minor",
    "population": "40316",
    "population_proper": "40316",
    "translations": {
      "en": "Romny",
      "ru": "Ромс",
      "uk": "Ромний"
    }
  },
  {
    "city": "Myrhorod",
    "lat": "49.9640",
    "lng": "33.6124",
    "country": "Ukraine",
    "iso2": "UA",
    "admin_name": "Poltavs’ka Oblast’",
    "capital": "minor",
    "population": "40160",
    "population_proper": "40160",
    "translations": {
      "en": "Myrhorod",
      "ru": "Myrhorod",
      "uk": "Миргород"
    }
  },
  {
    "city": "Podilsk",
    "lat": "47.7419",
    "lng": "29.5350",
    "country": "Ukraine",
    "iso2": "UA",
    "admin_name": "Odes’ka Oblast’",
    "capital": "minor",
    "population": "40155",
    "population_proper": "40155",
    "translations": {
      "en": "Podilsk",
      "ru": "Подильск",
      "uk": "Подільськ"
    }
  },
  {
    "city": "Pokrov",
    "lat": "47.6632",
    "lng": "34.0811",
    "country": "Ukraine",
    "iso2": "UA",
    "admin_name": "Dnipropetrovs’ka Oblast’",
    "capital": "",
    "population": "39497",
    "population_proper": "39497",
    "translations": {
      "en": "Pokrov",
      "ru": "Покров",
      "uk": "Покров"
    }
  },
  {
    "city": "Volodymyr-Volynskyi",
    "lat": "50.8481",
    "lng": "24.3222",
    "country": "Ukraine",
    "iso2": "UA",
    "admin_name": "Volyns’ka Oblast’",
    "capital": "minor",
    "population": "38901",
    "population_proper": "38901",
    "translations": {
      "en": "Volodymyr-Volynskyi",
      "ru": "Владимир-Волынский",
      "uk": "Володимир-Волинський"
    }
  },
  {
    "city": "Pervomaisk",
    "lat": "48.6333",
    "lng": "38.5167",
    "country": "Ukraine",
    "iso2": "UA",
    "admin_name": "Luhans’ka Oblast’",
    "capital": "",
    "population": "38801",
    "population_proper": "38801",
    "translations": {
      "en": "Pervomaisk",
      "ru": "Первомайск",
      "uk": "Первомайський"
    }
  },
  {
    "city": "Dzhankoi",
    "lat": "45.7086",
    "lng": "34.3933",
    "country": "Ukraine",
    "iso2": "UA",
    "admin_name": "Krym, Avtonomna Respublika",
    "capital": "minor",
    "population": "38714",
    "population_proper": "38714",
    "translations": {
      "en": "Dzhankoi",
      "ru": "Джанкой",
      "uk": "Джанкой"
    }
  },
  {
    "city": "Vasylkiv",
    "lat": "50.1775",
    "lng": "30.3217",
    "country": "Ukraine",
    "iso2": "UA",
    "admin_name": "Kyyivs’ka Oblast’",
    "capital": "",
    "population": "37696",
    "population_proper": "37696",
    "translations": {
      "en": "Vasylkiv",
      "ru": "Васильков",
      "uk": "Васильків"
    }
  },
  {
    "city": "Dubno",
    "lat": "50.3931",
    "lng": "25.7350",
    "country": "Ukraine",
    "iso2": "UA",
    "admin_name": "Rivnens’ka Oblast’",
    "capital": "minor",
    "population": "37545",
    "population_proper": "37545",
    "translations": {
      "en": "Dubno",
      "ru": "Добрый",
      "uk": "Дубно"
    }
  },
  {
    "city": "Boryslav",
    "lat": "49.2881",
    "lng": "23.4267",
    "country": "Ukraine",
    "iso2": "UA",
    "admin_name": "L’vivs’ka Oblast’",
    "capital": "",
    "population": "37093",
    "population_proper": "37093",
    "translations": {
      "en": "Boryslav",
      "ru": "Boryslav.",
      "uk": "Борислав"
    }
  },
  {
    "city": "Netishyn",
    "lat": "50.3300",
    "lng": "26.6400",
    "country": "Ukraine",
    "iso2": "UA",
    "admin_name": "Khmel’nyts’ka Oblast’",
    "capital": "",
    "population": "36921",
    "population_proper": "36921",
    "translations": {
      "en": "Netishyn",
      "ru": "Нетишын",
      "uk": "Нестача"
    }
  },
  {
    "city": "Holubivske",
    "lat": "48.6375",
    "lng": "38.6433",
    "country": "Ukraine",
    "iso2": "UA",
    "admin_name": "Luhans’ka Oblast’",
    "capital": "",
    "population": "36388",
    "population_proper": "36388",
    "translations": {
      "en": "Holubivske",
      "ru": "Голубивске",
      "uk": "Голубівське"
    }
  },
  {
    "city": "Kakhovka",
    "lat": "46.8000",
    "lng": "33.4667",
    "country": "Ukraine",
    "iso2": "UA",
    "admin_name": "Khersons’ka Oblast’",
    "capital": "minor",
    "population": "35900",
    "population_proper": "35900",
    "translations": {
      "en": "Kakhovka",
      "ru": "Каховка",
      "uk": "Каховка"
    }
  },
  {
    "city": "Boyarka",
    "lat": "50.3292",
    "lng": "30.2886",
    "country": "Ukraine",
    "iso2": "UA",
    "admin_name": "Kyyivs’ka Oblast’",
    "capital": "",
    "population": "35411",
    "population_proper": "35411",
    "translations": {
      "en": "Boyarka",
      "ru": "Боярка",
      "uk": "Боярка"
    }
  },
  {
    "city": "Yasynuvata",
    "lat": "48.1167",
    "lng": "37.8333",
    "country": "Ukraine",
    "iso2": "UA",
    "admin_name": "Donets’ka Oblast’",
    "capital": "",
    "population": "35303",
    "population_proper": "35303",
    "translations": {
      "en": "Yasynuvata",
      "ru": "Yasynuvata",
      "uk": "Ясинувата"
    }
  },
  {
    "city": "Voznesensk",
    "lat": "47.5725",
    "lng": "31.3119",
    "country": "Ukraine",
    "iso2": "UA",
    "admin_name": "Mykolayivs’ka Oblast’",
    "capital": "minor",
    "population": "35243",
    "population_proper": "35243",
    "translations": {
      "en": "Voznesensk",
      "ru": "Вознесенск",
      "uk": "Вознесенськ"
    }
  },
  {
    "city": "Bucha",
    "lat": "50.5464",
    "lng": "30.2350",
    "country": "Ukraine",
    "iso2": "UA",
    "admin_name": "Kyyivs’ka Oblast’",
    "capital": "minor",
    "population": "35162",
    "population_proper": "35162",
    "translations": {
      "en": "Bucha",
      "ru": "Bucha.",
      "uk": "Буча"
    }
  },
  {
    "city": "Sambir",
    "lat": "49.5167",
    "lng": "23.2000",
    "country": "Ukraine",
    "iso2": "UA",
    "admin_name": "L’vivs’ka Oblast’",
    "capital": "minor",
    "population": "35026",
    "population_proper": "35026",
    "translations": {
      "en": "Sambir",
      "ru": "Самбир",
      "uk": "Самбір"
    }
  },
  {
    "city": "Avdiivka",
    "lat": "48.1333",
    "lng": "37.7500",
    "country": "Ukraine",
    "iso2": "UA",
    "admin_name": "Donets’ka Oblast’",
    "capital": "",
    "population": "34938",
    "population_proper": "34938",
    "translations": {
      "en": "Avdiivka",
      "ru": "Авдивка",
      "uk": "Авдіївка"
    }
  },
  {
    "city": "Zhmerynka",
    "lat": "49.0425",
    "lng": "28.0992",
    "country": "Ukraine",
    "iso2": "UA",
    "admin_name": "Vinnyts’ka Oblast’",
    "capital": "minor",
    "population": "34537",
    "population_proper": "34537",
    "translations": {
      "en": "Zhmerynka",
      "ru": "ЖМЕРЬНКА",
      "uk": "Жмеринка"
    }
  },
  {
    "city": "Toretsk",
    "lat": "48.4000",
    "lng": "37.8333",
    "country": "Ukraine",
    "iso2": "UA",
    "admin_name": "Donets’ka Oblast’",
    "capital": "",
    "population": "34378",
    "population_proper": "34378",
    "translations": {
      "en": "Toretsk",
      "ru": "Toretsk.",
      "uk": "Торет"
    }
  },
  {
    "city": "Hlukhiv",
    "lat": "51.6765",
    "lng": "33.9078",
    "country": "Ukraine",
    "iso2": "UA",
    "admin_name": "Sums’ka Oblast’",
    "capital": "",
    "population": "33478",
    "population_proper": "33478",
    "translations": {
      "en": "Hlukhiv",
      "ru": "Глухов",
      "uk": "Глухів"
    }
  },
  {
    "city": "Obukhiv",
    "lat": "50.1000",
    "lng": "30.6167",
    "country": "Ukraine",
    "iso2": "UA",
    "admin_name": "Kyyivs’ka Oblast’",
    "capital": "minor",
    "population": "33204",
    "population_proper": "33204",
    "translations": {
      "en": "Obukhiv",
      "ru": "Обухов",
      "uk": "Обухів"
    }
  },
  {
    "city": "Chuhuiv",
    "lat": "49.8353",
    "lng": "36.6756",
    "country": "Ukraine",
    "iso2": "UA",
    "admin_name": "Kharkivs’ka Oblast’",
    "capital": "minor",
    "population": "33144",
    "population_proper": "33144",
    "translations": {
      "en": "Chuhuiv",
      "ru": "Чухуев",
      "uk": "Чугуїв"
    }
  },
  {
    "city": "Yuzhne",
    "lat": "46.6222",
    "lng": "31.1008",
    "country": "Ukraine",
    "iso2": "UA",
    "admin_name": "Odes’ka Oblast’",
    "capital": "",
    "population": "32679",
    "population_proper": "32679",
    "translations": {
      "en": "Yuzhne",
      "ru": "Yuzhne.",
      "uk": "Yuzhne"
    }
  },
  {
    "city": "Kostopil",
    "lat": "50.8833",
    "lng": "26.4431",
    "country": "Ukraine",
    "iso2": "UA",
    "admin_name": "Rivnens’ka Oblast’",
    "capital": "",
    "population": "31463",
    "population_proper": "31463",
    "translations": {
      "en": "Kostopil",
      "ru": "Костопил",
      "uk": "Костопіль"
    }
  },
  {
    "city": "Tokmak",
    "lat": "47.2514",
    "lng": "35.7058",
    "country": "Ukraine",
    "iso2": "UA",
    "admin_name": "Zaporiz’ka Oblast’",
    "capital": "minor",
    "population": "31016",
    "population_proper": "31016",
    "translations": {
      "en": "Tokmak",
      "ru": "Токмак",
      "uk": "Токмак"
    }
  },
  {
    "city": "Mohyliv-Podilskyi",
    "lat": "48.4500",
    "lng": "27.7833",
    "country": "Ukraine",
    "iso2": "UA",
    "admin_name": "Vinnyts’ka Oblast’",
    "capital": "minor",
    "population": "30982",
    "population_proper": "30982",
    "translations": {
      "en": "Mohyliv-Podilskyi",
      "ru": "Могилв-Подильский",
      "uk": "Могилів-Подільський"
    }
  },
  {
    "city": "Synelnykove",
    "lat": "48.3178",
    "lng": "35.5119",
    "country": "Ukraine",
    "iso2": "UA",
    "admin_name": "Dnipropetrovs’ka Oblast’",
    "capital": "minor",
    "population": "30724",
    "population_proper": "30724",
    "translations": {
      "en": "Synelnykove",
      "ru": "SynellyKove.",
      "uk": "Синельникове"
    }
  },
  {
    "city": "Novoyavorovskoye",
    "lat": "49.9311",
    "lng": "23.5731",
    "country": "Ukraine",
    "iso2": "UA",
    "admin_name": "L’vivs’ka Oblast’",
    "capital": "",
    "population": "30723",
    "population_proper": "30723",
    "translations": {
      "en": "Novoyavorovskoye",
      "ru": "Новоявоовское",
      "uk": "Новоявовське"
    }
  },
  {
    "city": "Pervomaiskyi",
    "lat": "49.3869",
    "lng": "36.2142",
    "country": "Ukraine",
    "iso2": "UA",
    "admin_name": "Kharkivs’ka Oblast’",
    "capital": "",
    "population": "30048",
    "population_proper": "30048",
    "translations": {
      "en": "Pervomaiskyi",
      "ru": "Первомайский",
      "uk": "Первомайський"
    }
  },
  {
    "city": "Alushta",
    "lat": "44.6672",
    "lng": "34.3978",
    "country": "Ukraine",
    "iso2": "UA",
    "admin_name": "Krym, Avtonomna Respublika",
    "capital": "",
    "population": "29668",
    "population_proper": "29668",
    "translations": {
      "en": "Alushta",
      "ru": "Алушта",
      "uk": "Алушта"
    }
  },
  {
    "city": "Chortkiv",
    "lat": "49.0167",
    "lng": "25.8000",
    "country": "Ukraine",
    "iso2": "UA",
    "admin_name": "Ternopil’s’ka Oblast’",
    "capital": "minor",
    "population": "29169",
    "population_proper": "29169",
    "translations": {
      "en": "Chortkiv",
      "ru": "Чортков",
      "uk": "Чортків"
    }
  },
  {
    "city": "Balakliia",
    "lat": "49.4564",
    "lng": "36.8389",
    "country": "Ukraine",
    "iso2": "UA",
    "admin_name": "Kharkivs’ka Oblast’",
    "capital": "",
    "population": "28868",
    "population_proper": "28868",
    "translations": {
      "en": "Balakliia",
      "ru": "Balakliia.",
      "uk": "Балаклія"
    }
  },
  {
    "city": "Truskavets",
    "lat": "49.2806",
    "lng": "23.5050",
    "country": "Ukraine",
    "iso2": "UA",
    "admin_name": "L’vivs’ka Oblast’",
    "capital": "",
    "population": "28867",
    "population_proper": "28867",
    "translations": {
      "en": "Truskavets",
      "ru": "Трускавец",
      "uk": "Трускавець"
    }
  },
  {
    "city": "Novyi Rozdil",
    "lat": "49.4703",
    "lng": "24.1300",
    "country": "Ukraine",
    "iso2": "UA",
    "admin_name": "L’vivs’ka Oblast’",
    "capital": "",
    "population": "28745",
    "population_proper": "28745",
    "translations": {
      "en": "Novyi Rozdil",
      "ru": "Новый Роздил",
      "uk": "Новий Розділь"
    }
  },
  {
    "city": "Khust",
    "lat": "48.1814",
    "lng": "23.2978",
    "country": "Ukraine",
    "iso2": "UA",
    "admin_name": "Zakarpats’ka Oblast’",
    "capital": "minor",
    "population": "28424",
    "population_proper": "28424",
    "translations": {
      "en": "Khust",
      "ru": "Хест",
      "uk": "Жвавий"
    }
  },
  {
    "city": "Pershotravensk",
    "lat": "48.3464",
    "lng": "36.4044",
    "country": "Ukraine",
    "iso2": "UA",
    "admin_name": "Dnipropetrovs’ka Oblast’",
    "capital": "",
    "population": "28363",
    "population_proper": "28363",
    "translations": {
      "en": "Pershotravensk",
      "ru": "Першитравенск",
      "uk": "Першотравенськ"
    }
  },
  {
    "city": "Khrestivka",
    "lat": "48.1500",
    "lng": "38.3667",
    "country": "Ukraine",
    "iso2": "UA",
    "admin_name": "Donets’ka Oblast’",
    "capital": "",
    "population": "28149",
    "population_proper": "28149",
    "translations": {
      "en": "Khrestivka",
      "ru": "Хрещевка",
      "uk": "Хрестивка"
    }
  },
  {
    "city": "Khmilnyk",
    "lat": "49.5500",
    "lng": "27.9667",
    "country": "Ukraine",
    "iso2": "UA",
    "admin_name": "Vinnyts’ka Oblast’",
    "capital": "minor",
    "population": "27941",
    "population_proper": "27941",
    "translations": {
      "en": "Khmilnyk",
      "ru": "Хмильний",
      "uk": "Хмільник"
    }
  },
  {
    "city": "Ternivka",
    "lat": "48.5231",
    "lng": "36.0826",
    "country": "Ukraine",
    "iso2": "UA",
    "admin_name": "Dnipropetrovs’ka Oblast’",
    "capital": "",
    "population": "27929",
    "population_proper": "27929",
    "translations": {
      "en": "Ternivka",
      "ru": "Тернивка",
      "uk": "Тернівка"
    }
  },
  {
    "city": "Zolotonosha",
    "lat": "49.6833",
    "lng": "32.0333",
    "country": "Ukraine",
    "iso2": "UA",
    "admin_name": "Cherkas’ka Oblast’",
    "capital": "minor",
    "population": "27847",
    "population_proper": "27847",
    "translations": {
      "en": "Zolotonosha",
      "ru": "Золотоноша",
      "uk": "Золотоноша"
    }
  },
  {
    "city": "Vyshhorod",
    "lat": "50.5833",
    "lng": "30.5000",
    "country": "Ukraine",
    "iso2": "UA",
    "admin_name": "Kyyivs’ka Oblast’",
    "capital": "minor",
    "population": "27825",
    "population_proper": "27825",
    "translations": {
      "en": "Vyshhorod",
      "ru": "Вышхород",
      "uk": "Вишгород"
    }
  },
  {
    "city": "Bakhchysarai",
    "lat": "44.7528",
    "lng": "33.8608",
    "country": "Ukraine",
    "iso2": "UA",
    "admin_name": "Krym, Avtonomna Respublika",
    "capital": "minor",
    "population": "27351",
    "population_proper": "27351",
    "translations": {
      "en": "Bakhchysarai",
      "ru": "Бахчисарай",
      "uk": "Бахчисарай"
    }
  },
  {
    "city": "Pereyaslav-Khmel’nyts’kyy",
    "lat": "50.0650",
    "lng": "31.4450",
    "country": "Ukraine",
    "iso2": "UA",
    "admin_name": "Kyyivs’ka Oblast’",
    "capital": "",
    "population": "27088",
    "population_proper": "27088",
    "translations": {
      "en": "Pereyaslav-Khmel’nyts’kyy",
      "ru": "Переяслав-Хмельницкий",
      "uk": "Переяслав-Хмельницький"
    }
  },
  {
    "city": "Sofiyivs’ka Borshchahivka",
    "lat": "50.4114",
    "lng": "30.3692",
    "country": "Ukraine",
    "iso2": "UA",
    "admin_name": "Kyyivs’ka Oblast’",
    "capital": "",
    "population": "26571",
    "population_proper": "26571",
    "translations": {
      "en": "Sofiyivs’ka Borshchahivka",
      "ru": "Софийвская борщаховка",
      "uk": "Софіївська борщагівка"
    }
  },
  {
    "city": "Malyn",
    "lat": "50.7689",
    "lng": "29.2700",
    "country": "Ukraine",
    "iso2": "UA",
    "admin_name": "Zhytomyrs’ka Oblast’",
    "capital": "",
    "population": "26204",
    "population_proper": "26204",
    "translations": {
      "en": "Malyn",
      "ru": "Малинский",
      "uk": "Малин"
    }
  },
  {
    "city": "Perevalsk",
    "lat": "48.4333",
    "lng": "38.8167",
    "country": "Ukraine",
    "iso2": "UA",
    "admin_name": "Luhans’ka Oblast’",
    "capital": "minor",
    "population": "26132",
    "population_proper": "26132",
    "translations": {
      "en": "Perevalsk",
      "ru": "Перевалльск",
      "uk": "Перевальськ"
    }
  },
  {
    "city": "Yany Kapu",
    "lat": "45.9675",
    "lng": "33.8003",
    "country": "Ukraine",
    "iso2": "UA",
    "admin_name": "Krym, Avtonomna Respublika",
    "capital": "minor",
    "population": "25769",
    "population_proper": "25769",
    "translations": {
      "en": "Yany Kapu",
      "ru": "Yany Kapu.",
      "uk": "Yany kapu"
    }
  },
  {
    "city": "Haisyn",
    "lat": "48.8094",
    "lng": "29.3906",
    "country": "Ukraine",
    "iso2": "UA",
    "admin_name": "Vinnyts’ka Oblast’",
    "capital": "minor",
    "population": "25672",
    "population_proper": "25672",
    "translations": {
      "en": "Haisyn",
      "ru": "Haisyn",
      "uk": "Хайсин"
    }
  },
  {
    "city": "Korostyshiv",
    "lat": "50.3186",
    "lng": "29.0592",
    "country": "Ukraine",
    "iso2": "UA",
    "admin_name": "Zhytomyrs’ka Oblast’",
    "capital": "",
    "population": "25445",
    "population_proper": "25445",
    "translations": {
      "en": "Korostyshiv",
      "ru": "Коростышов",
      "uk": "Коростишів"
    }
  },
  {
    "city": "Vynohradiv",
    "lat": "48.1397",
    "lng": "23.0331",
    "country": "Ukraine",
    "iso2": "UA",
    "admin_name": "Zakarpats’ka Oblast’",
    "capital": "minor",
    "population": "25403",
    "population_proper": "25403",
    "translations": {
      "en": "Vynohradiv",
      "ru": "Вантоградив",
      "uk": "Виноградів"
    }
  },
  {
    "city": "Slavutych",
    "lat": "51.5206",
    "lng": "30.7569",
    "country": "Ukraine",
    "iso2": "UA",
    "admin_name": "Kyyivs’ka Oblast’",
    "capital": "",
    "population": "25030",
    "population_proper": "25030",
    "translations": {
      "en": "Slavutych",
      "ru": "Славутич",
      "uk": "Славутич"
    }
  },
  {
    "city": "Saky",
    "lat": "45.1336",
    "lng": "33.5772",
    "country": "Ukraine",
    "iso2": "UA",
    "admin_name": "Krym, Avtonomna Respublika",
    "capital": "minor",
    "population": "24885",
    "population_proper": "24885",
    "translations": {
      "en": "Saky",
      "ru": "Саки",
      "uk": "Саки"
    }
  },
  {
    "city": "Kaniv",
    "lat": "49.7447",
    "lng": "31.4558",
    "country": "Ukraine",
    "iso2": "UA",
    "admin_name": "Cherkas’ka Oblast’",
    "capital": "",
    "population": "24532",
    "population_proper": "24532",
    "translations": {
      "en": "Kaniv",
      "ru": "Канив",
      "uk": "Канів"
    }
  },
  {
    "city": "Zolochiv",
    "lat": "49.8075",
    "lng": "24.9031",
    "country": "Ukraine",
    "iso2": "UA",
    "admin_name": "L’vivs’ka Oblast’",
    "capital": "minor",
    "population": "24059",
    "population_proper": "24059",
    "translations": {
      "en": "Zolochiv",
      "ru": "Золочив",
      "uk": "Золочів"
    }
  },
  {
    "city": "Selydove",
    "lat": "48.1500",
    "lng": "37.3000",
    "country": "Ukraine",
    "iso2": "UA",
    "admin_name": "Donets’ka Oblast’",
    "capital": "",
    "population": "23793",
    "population_proper": "23793",
    "translations": {
      "en": "Selydove",
      "ru": "СЕЛЕЛДОВЬ",
      "uk": "Селидове"
    }
  },
  {
    "city": "Brody",
    "lat": "50.0781",
    "lng": "25.1542",
    "country": "Ukraine",
    "iso2": "UA",
    "admin_name": "L’vivs’ka Oblast’",
    "capital": "",
    "population": "23752",
    "population_proper": "23752",
    "translations": {
      "en": "Brody",
      "ru": "Броди",
      "uk": "Броди"
    }
  },
  {
    "city": "Berehove",
    "lat": "48.2025",
    "lng": "22.6375",
    "country": "Ukraine",
    "iso2": "UA",
    "admin_name": "Zakarpats’ka Oblast’",
    "capital": "minor",
    "population": "23732",
    "population_proper": "23732",
    "translations": {
      "en": "Berehove",
      "ru": "Берехов",
      "uk": "Запекл"
    }
  },
  {
    "city": "Koziatyn",
    "lat": "49.7167",
    "lng": "28.8333",
    "country": "Ukraine",
    "iso2": "UA",
    "admin_name": "Vinnyts’ka Oblast’",
    "capital": "minor",
    "population": "23610",
    "population_proper": "23610",
    "translations": {
      "en": "Koziatyn",
      "ru": "Козиатын",
      "uk": "Kozityn"
    }
  },
  {
    "city": "Vilnohirsk",
    "lat": "48.4824",
    "lng": "34.0189",
    "country": "Ukraine",
    "iso2": "UA",
    "admin_name": "Dnipropetrovs’ka Oblast’",
    "capital": "",
    "population": "23235",
    "population_proper": "23235",
    "translations": {
      "en": "Vilnohirsk",
      "ru": "Вилнохирск",
      "uk": "Вільнюрськ"
    }
  },
  {
    "city": "Molodohvardiisk",
    "lat": "48.3444",
    "lng": "39.6583",
    "country": "Ukraine",
    "iso2": "UA",
    "admin_name": "Luhans’ka Oblast’",
    "capital": "",
    "population": "22937",
    "population_proper": "22937",
    "translations": {
      "en": "Molodohvardiisk",
      "ru": "Молодоховардиск",
      "uk": "Молодохвардіск"
    }
  },
  {
    "city": "Znamianka",
    "lat": "48.7136",
    "lng": "32.6733",
    "country": "Ukraine",
    "iso2": "UA",
    "admin_name": "Kirovohrads’ka Oblast’",
    "capital": "minor",
    "population": "22936",
    "population_proper": "22936",
    "translations": {
      "en": "Znamianka",
      "ru": "Znamianka.",
      "uk": "Знаменитість"
    }
  },
  {
    "city": "Ladyzhyn",
    "lat": "48.6667",
    "lng": "29.2167",
    "country": "Ukraine",
    "iso2": "UA",
    "admin_name": "Vinnyts’ka Oblast’",
    "capital": "",
    "population": "22682",
    "population_proper": "22682",
    "translations": {
      "en": "Ladyzhyn",
      "ru": "Ледижин",
      "uk": "Ледіжин"
    }
  },
  {
    "city": "Nadvirna",
    "lat": "48.6333",
    "lng": "24.5833",
    "country": "Ukraine",
    "iso2": "UA",
    "admin_name": "Ivano-Frankivs’ka Oblast’",
    "capital": "minor",
    "population": "22447",
    "population_proper": "22447",
    "translations": {
      "en": "Nadvirna",
      "ru": "Надвирна",
      "uk": "Надвірна"
    }
  },
  {
    "city": "Lyman",
    "lat": "48.9861",
    "lng": "37.8111",
    "country": "Ukraine",
    "iso2": "UA",
    "admin_name": "Donets’ka Oblast’",
    "capital": "",
    "population": "22315",
    "population_proper": "22315",
    "translations": {
      "en": "Lyman",
      "ru": "Лыман",
      "uk": "Ледар"
    }
  },
  {
    "city": "Bilohorodka",
    "lat": "50.4000",
    "lng": "30.2167",
    "country": "Ukraine",
    "iso2": "UA",
    "admin_name": "Kyyivs’ka Oblast’",
    "capital": "",
    "population": "21367",
    "population_proper": "21367",
    "translations": {
      "en": "Bilohorodka",
      "ru": "Билохородка",
      "uk": "Білогородка"
    }
  },
  {
    "city": "Sukhodilsk",
    "lat": "48.3500",
    "lng": "39.7167",
    "country": "Ukraine",
    "iso2": "UA",
    "admin_name": "Luhans’ka Oblast’",
    "capital": "",
    "population": "21324",
    "population_proper": "21324",
    "translations": {
      "en": "Sukhodilsk",
      "ru": "Суходильск",
      "uk": "Суходільськ"
    }
  },
  {
    "city": "Sokal",
    "lat": "50.4833",
    "lng": "24.2833",
    "country": "Ukraine",
    "iso2": "UA",
    "admin_name": "L’vivs’ka Oblast’",
    "capital": "",
    "population": "20986",
    "population_proper": "20986",
    "translations": {
      "en": "Sokal",
      "ru": "Сокал",
      "uk": "Сокальний"
    }
  },
  {
    "city": "Liubotyn",
    "lat": "49.9489",
    "lng": "35.9306",
    "country": "Ukraine",
    "iso2": "UA",
    "admin_name": "Kharkivs’ka Oblast’",
    "capital": "",
    "population": "20887",
    "population_proper": "20887",
    "translations": {
      "en": "Liubotyn",
      "ru": "Liubotyn",
      "uk": "Люботин"
    }
  },
  {
    "city": "Kremenets",
    "lat": "50.1081",
    "lng": "25.7275",
    "country": "Ukraine",
    "iso2": "UA",
    "admin_name": "Ternopil’s’ka Oblast’",
    "capital": "minor",
    "population": "20837",
    "population_proper": "20837",
    "translations": {
      "en": "Kremenets",
      "ru": "Кременс",
      "uk": "Кременець"
    }
  },
  {
    "city": "Dolyna",
    "lat": "48.9703",
    "lng": "24.0108",
    "country": "Ukraine",
    "iso2": "UA",
    "admin_name": "Ivano-Frankivs’ka Oblast’",
    "capital": "minor",
    "population": "20691",
    "population_proper": "20691",
    "translations": {
      "en": "Dolyna",
      "ru": "Долина",
      "uk": "Долина"
    }
  },
  {
    "city": "Henichesk",
    "lat": "46.1769",
    "lng": "34.7989",
    "country": "Ukraine",
    "iso2": "UA",
    "admin_name": "Khersons’ka Oblast’",
    "capital": "minor",
    "population": "19869",
    "population_proper": "19869",
    "translations": {
      "en": "Henichesk",
      "ru": "Хенцеск",
      "uk": "Хніческ"
    }
  },
  {
    "city": "Yahotyn",
    "lat": "50.2569",
    "lng": "31.7817",
    "country": "Ukraine",
    "iso2": "UA",
    "admin_name": "Kyyivs’ka Oblast’",
    "capital": "",
    "population": "19613",
    "population_proper": "19613",
    "translations": {
      "en": "Yahotyn",
      "ru": "Яхотин",
      "uk": "Yahotyn"
    }
  },
  {
    "city": "Pidhorodne",
    "lat": "48.5737",
    "lng": "35.0966",
    "country": "Ukraine",
    "iso2": "UA",
    "admin_name": "Dnipropetrovs’ka Oblast’",
    "capital": "",
    "population": "19524",
    "population_proper": "19524",
    "translations": {
      "en": "Pidhorodne",
      "ru": "Pidhorodne.",
      "uk": "Підхолодний"
    }
  },
  {
    "city": "Balta",
    "lat": "47.9361",
    "lng": "29.6225",
    "country": "Ukraine",
    "iso2": "UA",
    "admin_name": "Odes’ka Oblast’",
    "capital": "minor",
    "population": "19353",
    "population_proper": "19353",
    "translations": {
      "en": "Balta",
      "ru": "Балта",
      "uk": "Балта"
    }
  },
  {
    "city": "Dolynska",
    "lat": "48.1111",
    "lng": "32.7648",
    "country": "Ukraine",
    "iso2": "UA",
    "admin_name": "Kirovohrads’ka Oblast’",
    "capital": "minor",
    "population": "19287",
    "population_proper": "19287",
    "translations": {
      "en": "Dolynska",
      "ru": "Долинская",
      "uk": "Долинська"
    }
  },
  {
    "city": "Kalynivka",
    "lat": "49.4472",
    "lng": "28.5231",
    "country": "Ukraine",
    "iso2": "UA",
    "admin_name": "Vinnyts’ka Oblast’",
    "capital": "minor",
    "population": "18906",
    "population_proper": "18906",
    "translations": {
      "en": "Kalynivka",
      "ru": "Калиновка",
      "uk": "Калинівка"
    }
  },
  {
    "city": "Polohy",
    "lat": "47.4796",
    "lng": "36.2611",
    "country": "Ukraine",
    "iso2": "UA",
    "admin_name": "Zaporiz’ka Oblast’",
    "capital": "minor",
    "population": "18886",
    "population_proper": "18886",
    "translations": {
      "en": "Polohy",
      "ru": "Полоса",
      "uk": "Полох"
    }
  },
  {
    "city": "Piatykhatky",
    "lat": "48.4126",
    "lng": "33.7034",
    "country": "Ukraine",
    "iso2": "UA",
    "admin_name": "Dnipropetrovs’ka Oblast’",
    "capital": "minor",
    "population": "18845",
    "population_proper": "18845",
    "translations": {
      "en": "Piatykhatky",
      "ru": "Piatykhatky",
      "uk": "П'ятихатки"
    }
  },
  {
    "city": "Starobilsk",
    "lat": "49.2667",
    "lng": "38.9167",
    "country": "Ukraine",
    "iso2": "UA",
    "admin_name": "Luhans’ka Oblast’",
    "capital": "minor",
    "population": "18796",
    "population_proper": "18796",
    "translations": {
      "en": "Starobilsk",
      "ru": "Старобильск",
      "uk": "Старобілськ"
    }
  },
  {
    "city": "Vovchansk",
    "lat": "50.2881",
    "lng": "36.9461",
    "country": "Ukraine",
    "iso2": "UA",
    "admin_name": "Kharkivs’ka Oblast’",
    "capital": "minor",
    "population": "18644",
    "population_proper": "18644",
    "translations": {
      "en": "Vovchansk",
      "ru": "Вовчанск",
      "uk": "Вовчанськ"
    }
  },
  {
    "city": "Skadovsk",
    "lat": "46.1167",
    "lng": "32.9167",
    "country": "Ukraine",
    "iso2": "UA",
    "admin_name": "Khersons’ka Oblast’",
    "capital": "minor",
    "population": "18482",
    "population_proper": "18482",
    "translations": {
      "en": "Skadovsk",
      "ru": "Скадовск",
      "uk": "Скадовськ"
    }
  },
  {
    "city": "Dniprorudne",
    "lat": "47.3855",
    "lng": "34.9879",
    "country": "Ukraine",
    "iso2": "UA",
    "admin_name": "Zaporiz’ka Oblast’",
    "capital": "",
    "population": "18468",
    "population_proper": "18468",
    "translations": {
      "en": "Dniprorudne",
      "ru": "Днепрорудне",
      "uk": "Дніпрорудне"
    }
  },
  {
    "city": "Svatove",
    "lat": "49.4092",
    "lng": "38.1619",
    "country": "Ukraine",
    "iso2": "UA",
    "admin_name": "Luhans’ka Oblast’",
    "capital": "minor",
    "population": "18417",
    "population_proper": "18417",
    "translations": {
      "en": "Svatove",
      "ru": "Сватов",
      "uk": "Сватове"
    }
  },
  {
    "city": "Amvrosiivka",
    "lat": "47.7958",
    "lng": "38.4801",
    "country": "Ukraine",
    "iso2": "UA",
    "admin_name": "Donets’ka Oblast’",
    "capital": "",
    "population": "18413",
    "population_proper": "18413",
    "translations": {
      "en": "Amvrosiivka",
      "ru": "Амворосиевка",
      "uk": "Amvrosiivka"
    }
  },
  {
    "city": "Korsun-Shevchenkivskyi",
    "lat": "49.4261",
    "lng": "31.2806",
    "country": "Ukraine",
    "iso2": "UA",
    "admin_name": "Cherkas’ka Oblast’",
    "capital": "",
    "population": "18401",
    "population_proper": "18401",
    "translations": {
      "en": "Korsun-Shevchenkivskyi",
      "ru": "Корсун-Шевченковский",
      "uk": "Корсун-Шевченківський"
    }
  },
  {
    "city": "Bolhrad",
    "lat": "45.6855",
    "lng": "28.6134",
    "country": "Ukraine",
    "iso2": "UA",
    "admin_name": "Odes’ka Oblast’",
    "capital": "minor",
    "population": "17400",
    "population_proper": "17400",
    "translations": {
      "en": "Bolhrad",
      "ru": "Болград",
      "uk": "Болград"
    }
  },
  {
    "city": "Svalyava",
    "lat": "48.5472",
    "lng": "22.9861",
    "country": "Ukraine",
    "iso2": "UA",
    "admin_name": "Zakarpats’ka Oblast’",
    "capital": "",
    "population": "17234",
    "population_proper": "17234",
    "translations": {
      "en": "Svalyava",
      "ru": "Свалява",
      "uk": "Свалява"
    }
  },
  {
    "city": "Zvenyhorodka",
    "lat": "49.0833",
    "lng": "30.9667",
    "country": "Ukraine",
    "iso2": "UA",
    "admin_name": "Cherkas’ka Oblast’",
    "capital": "minor",
    "population": "17078",
    "population_proper": "17078",
    "translations": {
      "en": "Zvenyhorodka",
      "ru": "ЗВЕНЫХОРОДКА",
      "uk": "Zvenyhorodka"
    }
  },
  {
    "city": "Iziaslav",
    "lat": "50.1167",
    "lng": "26.8000",
    "country": "Ukraine",
    "iso2": "UA",
    "admin_name": "Khmel’nyts’ka Oblast’",
    "capital": "",
    "population": "16901",
    "population_proper": "16901",
    "translations": {
      "en": "Iziaslav",
      "ru": "Изиаслав",
      "uk": "Iziaslav"
    }
  },
  {
    "city": "Vatutine",
    "lat": "49.0167",
    "lng": "31.0667",
    "country": "Ukraine",
    "iso2": "UA",
    "admin_name": "Cherkas’ka Oblast’",
    "capital": "",
    "population": "16888",
    "population_proper": "16888",
    "translations": {
      "en": "Vatutine",
      "ru": "Ватутин",
      "uk": "Ватутний"
    }
  },
  {
    "city": "Sudak",
    "lat": "44.8514",
    "lng": "34.9725",
    "country": "Ukraine",
    "iso2": "UA",
    "admin_name": "Krym, Avtonomna Respublika",
    "capital": "",
    "population": "16756",
    "population_proper": "16756",
    "translations": {
      "en": "Sudak",
      "ru": "Судак",
      "uk": "Судак"
    }
  },
  {
    "city": "Horodok",
    "lat": "49.1667",
    "lng": "26.5667",
    "country": "Ukraine",
    "iso2": "UA",
    "admin_name": "Khmel’nyts’ka Oblast’",
    "capital": "",
    "population": "16516",
    "population_proper": "16516",
    "translations": {
      "en": "Horodok",
      "ru": "Городок",
      "uk": "Городок"
    }
  },
  {
    "city": "Berezan",
    "lat": "50.3197",
    "lng": "31.4700",
    "country": "Ukraine",
    "iso2": "UA",
    "admin_name": "Kyyivs’ka Oblast’",
    "capital": "",
    "population": "16506",
    "population_proper": "16506",
    "translations": {
      "en": "Berezan",
      "ru": "Березан",
      "uk": "Березан"
    }
  },
  {
    "city": "Bilohirsk",
    "lat": "45.0544",
    "lng": "34.6022",
    "country": "Ukraine",
    "iso2": "UA",
    "admin_name": "Krym, Avtonomna Respublika",
    "capital": "minor",
    "population": "16428",
    "population_proper": "16428",
    "translations": {
      "en": "Bilohirsk",
      "ru": "Билохирск",
      "uk": "Білогірськ"
    }
  },
  {
    "city": "Verkhivtseve",
    "lat": "48.4812",
    "lng": "34.2488",
    "country": "Ukraine",
    "iso2": "UA",
    "admin_name": "Dnipropetrovs’ka Oblast’",
    "capital": "",
    "population": "16364",
    "population_proper": "16364",
    "translations": {
      "en": "Verkhivtseve",
      "ru": "Верхтив",
      "uk": "Верхівцеве"
    }
  },
  {
    "city": "Kotsyubyns’ke",
    "lat": "50.4883",
    "lng": "30.3331",
    "country": "Ukraine",
    "iso2": "UA",
    "admin_name": "Kyyiv, Misto",
    "capital": "",
    "population": "16337",
    "population_proper": "16337",
    "translations": {
      "en": "Kotsyubyns’ke",
      "ru": "Котсубинс",
      "uk": "Коцюбинське"
    }
  },
  {
    "city": "Hostomel",
    "lat": "50.5692",
    "lng": "30.2653",
    "country": "Ukraine",
    "iso2": "UA",
    "admin_name": "Kyyivs’ka Oblast’",
    "capital": "",
    "population": "16190",
    "population_proper": "16190",
    "translations": {
      "en": "Hostomel",
      "ru": "Хостемель",
      "uk": "Готель"
    }
  },
  {
    "city": "Bar",
    "lat": "49.0781",
    "lng": "27.6831",
    "country": "Ukraine",
    "iso2": "UA",
    "admin_name": "Vinnyts’ka Oblast’",
    "capital": "minor",
    "population": "16136",
    "population_proper": "16136",
    "translations": {
      "en": "Bar",
      "ru": "Бар",
      "uk": "Бар"
    }
  },
  {
    "city": "Ukrainka",
    "lat": "50.1500",
    "lng": "30.7519",
    "country": "Ukraine",
    "iso2": "UA",
    "admin_name": "Kyyivs’ka Oblast’",
    "capital": "",
    "population": "16056",
    "population_proper": "16056",
    "translations": {
      "en": "Ukrainka",
      "ru": "Украинка",
      "uk": "Українка"
    }
  },
  {
    "city": "Horodok",
    "lat": "49.7822",
    "lng": "23.6436",
    "country": "Ukraine",
    "iso2": "UA",
    "admin_name": "L’vivs’ka Oblast’",
    "capital": "",
    "population": "15993",
    "population_proper": "15993",
    "translations": {
      "en": "Horodok",
      "ru": "Городок",
      "uk": "Городок"
    }
  },
  {
    "city": "Skvyra",
    "lat": "49.7333",
    "lng": "29.6833",
    "country": "Ukraine",
    "iso2": "UA",
    "admin_name": "Kyyivs’ka Oblast’",
    "capital": "minor",
    "population": "15889",
    "population_proper": "15889",
    "translations": {
      "en": "Skvyra",
      "ru": "Сквира",
      "uk": "Сквира"
    }
  },
  {
    "city": "Yuvileine",
    "lat": "48.5531",
    "lng": "39.1742",
    "country": "Ukraine",
    "iso2": "UA",
    "admin_name": "Luhans’ka Oblast’",
    "capital": "",
    "population": "15830",
    "population_proper": "15830",
    "translations": {
      "en": "Yuvileine",
      "ru": "Ювин",
      "uk": "Юнак"
    }
  },
  {
    "city": "Ovruch",
    "lat": "51.3244",
    "lng": "28.8081",
    "country": "Ukraine",
    "iso2": "UA",
    "admin_name": "Zhytomyrs’ka Oblast’",
    "capital": "",
    "population": "15795",
    "population_proper": "15795",
    "translations": {
      "en": "Ovruch",
      "ru": "Овруч",
      "uk": "Овряд"
    }
  },
  {
    "city": "Putyvl",
    "lat": "51.3347",
    "lng": "33.8686",
    "country": "Ukraine",
    "iso2": "UA",
    "admin_name": "Sums’ka Oblast’",
    "capital": "",
    "population": "15778",
    "population_proper": "15778",
    "translations": {
      "en": "Putyvl",
      "ru": "Putyvl.",
      "uk": "Палива"
    }
  },
  {
    "city": "Vynnyky",
    "lat": "49.8156",
    "lng": "24.1297",
    "country": "Ukraine",
    "iso2": "UA",
    "admin_name": "L’vivs’ka Oblast’",
    "capital": "",
    "population": "15723",
    "population_proper": "15723",
    "translations": {
      "en": "Vynnyky",
      "ru": "Винни",
      "uk": "Винники"
    }
  },
  {
    "city": "Ostroh",
    "lat": "50.3333",
    "lng": "26.5167",
    "country": "Ukraine",
    "iso2": "UA",
    "admin_name": "Rivnens’ka Oblast’",
    "capital": "",
    "population": "15642",
    "population_proper": "15642",
    "translations": {
      "en": "Ostroh",
      "ru": "Ostroh.",
      "uk": "Острова"
    }
  },
  {
    "city": "Rakhiv",
    "lat": "48.0500",
    "lng": "24.2167",
    "country": "Ukraine",
    "iso2": "UA",
    "admin_name": "Zakarpats’ka Oblast’",
    "capital": "minor",
    "population": "15621",
    "population_proper": "15621",
    "translations": {
      "en": "Rakhiv",
      "ru": "Рахив",
      "uk": "Рахів"
    }
  },
  {
    "city": "Bohodukhiv",
    "lat": "50.1608",
    "lng": "35.5164",
    "country": "Ukraine",
    "iso2": "UA",
    "admin_name": "Kharkivs’ka Oblast’",
    "capital": "minor",
    "population": "15576",
    "population_proper": "15576",
    "translations": {
      "en": "Bohodukhiv",
      "ru": "Богодухив",
      "uk": "Богодухів"
    }
  },
  {
    "city": "Bilopillya",
    "lat": "51.1532",
    "lng": "34.3025",
    "country": "Ukraine",
    "iso2": "UA",
    "admin_name": "Sums’ka Oblast’",
    "capital": "",
    "population": "15215",
    "population_proper": "15215",
    "translations": {
      "en": "Bilopillya",
      "ru": "Bilopillya",
      "uk": "Білопілля"
    }
  },
  {
    "city": "Tulchyn",
    "lat": "48.6744",
    "lng": "28.8497",
    "country": "Ukraine",
    "iso2": "UA",
    "admin_name": "Vinnyts’ka Oblast’",
    "capital": "minor",
    "population": "15051",
    "population_proper": "15051",
    "translations": {
      "en": "Tulchyn",
      "ru": "Тульчин",
      "uk": "Тульчин"
    }
  },
  {
    "city": "Vil’nyans’k",
    "lat": "47.9445",
    "lng": "35.4331",
    "country": "Ukraine",
    "iso2": "UA",
    "admin_name": "Zaporiz’ka Oblast’",
    "capital": "",
    "population": "15044",
    "population_proper": "15044",
    "translations": {
      "en": "Vil’nyans’k",
      "ru": "Вильнянск",
      "uk": "Вільнянськ"
    }
  },
  {
    "city": "Burshtyn",
    "lat": "49.2600",
    "lng": "24.6350",
    "country": "Ukraine",
    "iso2": "UA",
    "admin_name": "Ivano-Frankivs’ka Oblast’",
    "capital": "",
    "population": "15039",
    "population_proper": "15039",
    "translations": {
      "en": "Burshtyn",
      "ru": "Бурштын",
      "uk": "Бурштин"
    }
  },
  {
    "city": "Zmiiv",
    "lat": "49.6878",
    "lng": "36.3558",
    "country": "Ukraine",
    "iso2": "UA",
    "admin_name": "Kharkivs’ka Oblast’",
    "capital": "",
    "population": "14848",
    "population_proper": "14848",
    "translations": {
      "en": "Zmiiv",
      "ru": "Zmiiv.",
      "uk": "Zmiiv"
    }
  },
  {
    "city": "Ochakiv",
    "lat": "46.6186",
    "lng": "31.5392",
    "country": "Ukraine",
    "iso2": "UA",
    "admin_name": "Mykolayivs’ka Oblast’",
    "capital": "minor",
    "population": "14705",
    "population_proper": "14705",
    "translations": {
      "en": "Ochakiv",
      "ru": "Очаков",
      "uk": "Очаків"
    }
  },
  {
    "city": "Hulyaypole",
    "lat": "47.6644",
    "lng": "36.2632",
    "country": "Ukraine",
    "iso2": "UA",
    "admin_name": "Zaporiz’ka Oblast’",
    "capital": "",
    "population": "14678",
    "population_proper": "14678",
    "translations": {
      "en": "Hulyaypole",
      "ru": "Hulyaypole.",
      "uk": "Гуляйскол"
    }
  },
  {
    "city": "Radomyshl",
    "lat": "50.4947",
    "lng": "29.2333",
    "country": "Ukraine",
    "iso2": "UA",
    "admin_name": "Zhytomyrs’ka Oblast’",
    "capital": "minor",
    "population": "14607",
    "population_proper": "14607",
    "translations": {
      "en": "Radomyshl",
      "ru": "Радомишл",
      "uk": "Радомишль"
    }
  },
  {
    "city": "Stanytsia Luhanska",
    "lat": "48.6667",
    "lng": "39.4667",
    "country": "Ukraine",
    "iso2": "UA",
    "admin_name": "Luhans’ka Oblast’",
    "capital": "",
    "population": "14543",
    "population_proper": "14543",
    "translations": {
      "en": "Stanytsia Luhanska",
      "ru": "Stanymsia Luhanska.",
      "uk": "Станиця Луганська"
    }
  },
  {
    "city": "Orikhiv",
    "lat": "47.5677",
    "lng": "35.7849",
    "country": "Ukraine",
    "iso2": "UA",
    "admin_name": "Zaporiz’ka Oblast’",
    "capital": "",
    "population": "14479",
    "population_proper": "14479",
    "translations": {
      "en": "Orikhiv",
      "ru": "Орихов",
      "uk": "Оріхів"
    }
  },
  {
    "city": "Hola Prystan",
    "lat": "46.5167",
    "lng": "32.5167",
    "country": "Ukraine",
    "iso2": "UA",
    "admin_name": "Khersons’ka Oblast’",
    "capital": "minor",
    "population": "14479",
    "population_proper": "14479",
    "translations": {
      "en": "Hola Prystan",
      "ru": "Hola Pryster.",
      "uk": "Хола Пристань"
    }
  },
  {
    "city": "Zolote",
    "lat": "48.6833",
    "lng": "38.5167",
    "country": "Ukraine",
    "iso2": "UA",
    "admin_name": "Luhans’ka Oblast’",
    "capital": "",
    "population": "14376",
    "population_proper": "14376",
    "translations": {
      "en": "Zolote",
      "ru": "Zolote",
      "uk": "Золот"
    }
  },
  {
    "city": "Lebedyn",
    "lat": "50.5831",
    "lng": "34.4823",
    "country": "Ukraine",
    "iso2": "UA",
    "admin_name": "Sums’ka Oblast’",
    "capital": "",
    "population": "14301",
    "population_proper": "14301",
    "translations": {
      "en": "Lebedyn",
      "ru": "Лебедь",
      "uk": "Лебедин"
    }
  },
  {
    "city": "Kivertsi",
    "lat": "50.8331",
    "lng": "25.4614",
    "country": "Ukraine",
    "iso2": "UA",
    "admin_name": "Volyns’ka Oblast’",
    "capital": "",
    "population": "14195",
    "population_proper": "14195",
    "translations": {
      "en": "Kivertsi",
      "ru": "Kivertsi.",
      "uk": "Kivertsi"
    }
  },
  {
    "city": "Nyzhnia Krynka",
    "lat": "48.1144",
    "lng": "38.1606",
    "country": "Ukraine",
    "iso2": "UA",
    "admin_name": "Donets’ka Oblast’",
    "capital": "",
    "population": "13927",
    "population_proper": "13927",
    "translations": {
      "en": "Nyzhnia Krynka",
      "ru": "Nyzhnia Krynka.",
      "uk": "Нижня Кринка"
    }
  },
  {
    "city": "Zhashkiv",
    "lat": "49.2500",
    "lng": "30.1000",
    "country": "Ukraine",
    "iso2": "UA",
    "admin_name": "Cherkas’ka Oblast’",
    "capital": "",
    "population": "13853",
    "population_proper": "13853",
    "translations": {
      "en": "Zhashkiv",
      "ru": "Жашкив",
      "uk": "Жашків"
    }
  },
  {
    "city": "Zhovkva",
    "lat": "50.0667",
    "lng": "23.9667",
    "country": "Ukraine",
    "iso2": "UA",
    "admin_name": "L’vivs’ka Oblast’",
    "capital": "",
    "population": "13834",
    "population_proper": "13834",
    "translations": {
      "en": "Zhovkva",
      "ru": "Жовква",
      "uk": "Жовква"
    }
  },
  {
    "city": "Horodyshche",
    "lat": "49.2925",
    "lng": "31.4581",
    "country": "Ukraine",
    "iso2": "UA",
    "admin_name": "Cherkas’ka Oblast’",
    "capital": "minor",
    "population": "13799",
    "population_proper": "13799",
    "translations": {
      "en": "Horodyshche",
      "ru": "Городище",
      "uk": "Городище"
    }
  },
  {
    "city": "Apostolove",
    "lat": "47.6595",
    "lng": "33.7170",
    "country": "Ukraine",
    "iso2": "UA",
    "admin_name": "Dnipropetrovs’ka Oblast’",
    "capital": "minor",
    "population": "13792",
    "population_proper": "13792",
    "translations": {
      "en": "Apostolove",
      "ru": "Апостолово",
      "uk": "Апостолова"
    }
  },
  {
    "city": "Talne",
    "lat": "48.8863",
    "lng": "30.7027",
    "country": "Ukraine",
    "iso2": "UA",
    "admin_name": "Cherkas’ka Oblast’",
    "capital": "",
    "population": "13558",
    "population_proper": "13558",
    "translations": {
      "en": "Talne",
      "ru": "Талн",
      "uk": "Обід"
    }
  },
  {
    "city": "Kaharlyk",
    "lat": "49.8522",
    "lng": "30.8092",
    "country": "Ukraine",
    "iso2": "UA",
    "admin_name": "Kyyivs’ka Oblast’",
    "capital": "minor",
    "population": "13544",
    "population_proper": "13544",
    "translations": {
      "en": "Kaharlyk",
      "ru": "Карарлык",
      "uk": "Кахарлик"
    }
  },
  {
    "city": "Zelenodolsk",
    "lat": "47.5631",
    "lng": "33.6524",
    "country": "Ukraine",
    "iso2": "UA",
    "admin_name": "Dnipropetrovs’ka Oblast’",
    "capital": "",
    "population": "13349",
    "population_proper": "13349",
    "translations": {
      "en": "Zelenodolsk",
      "ru": "Зеленодольск",
      "uk": "Зеленодольськ"
    }
  },
  {
    "city": "Nosivka",
    "lat": "50.9300",
    "lng": "31.5800",
    "country": "Ukraine",
    "iso2": "UA",
    "admin_name": "Chernihivs’ka Oblast’",
    "capital": "",
    "population": "13310",
    "population_proper": "13310",
    "translations": {
      "en": "Nosivka",
      "ru": "Носивка",
      "uk": "Носівка"
    }
  },
  {
    "city": "Borodyanka",
    "lat": "50.6439",
    "lng": "29.9339",
    "country": "Ukraine",
    "iso2": "UA",
    "admin_name": "Kyyivs’ka Oblast’",
    "capital": "",
    "population": "13230",
    "population_proper": "13230",
    "translations": {
      "en": "Borodyanka",
      "ru": "Бородинка",
      "uk": "Бородянка"
    }
  },
  {
    "city": "Slobozhanske",
    "lat": "48.5342",
    "lng": "35.0749",
    "country": "Ukraine",
    "iso2": "UA",
    "admin_name": "Dnipropetrovs’ka Oblast’",
    "capital": "",
    "population": "13221",
    "population_proper": "13221",
    "translations": {
      "en": "Slobozhanske",
      "ru": "Слобожанская",
      "uk": "Слобожанське"
    }
  },
  {
    "city": "Vasylivka",
    "lat": "47.4344",
    "lng": "35.2808",
    "country": "Ukraine",
    "iso2": "UA",
    "admin_name": "Zaporiz’ka Oblast’",
    "capital": "minor",
    "population": "13166",
    "population_proper": "13166",
    "translations": {
      "en": "Vasylivka",
      "ru": "Васильвка",
      "uk": "Василівка"
    }
  },
  {
    "city": "Izium",
    "lat": "49.2238",
    "lng": "37.2915",
    "country": "Ukraine",
    "iso2": "UA",
    "admin_name": "Kharkivs’ka Oblast’",
    "capital": "minor",
    "population": "13108",
    "population_proper": "13108",
    "translations": {
      "en": "Izium",
      "ru": "Изий",
      "uk": "Izium"
    }
  },
  {
    "city": "Yavoriv",
    "lat": "49.9469",
    "lng": "23.3931",
    "country": "Ukraine",
    "iso2": "UA",
    "admin_name": "L’vivs’ka Oblast’",
    "capital": "minor",
    "population": "13057",
    "population_proper": "13057",
    "translations": {
      "en": "Yavoriv",
      "ru": "Яровов",
      "uk": "Яворів"
    }
  },
  {
    "city": "Velykodolynske",
    "lat": "46.3425",
    "lng": "30.5653",
    "country": "Ukraine",
    "iso2": "UA",
    "admin_name": "Odes’ka Oblast’",
    "capital": "",
    "population": "13036",
    "population_proper": "13036",
    "translations": {
      "en": "Velykodolynske",
      "ru": "Velykodolynske.",
      "uk": "Великодолинське"
    }
  },
  {
    "city": "Tetiiv",
    "lat": "49.3708",
    "lng": "29.6900",
    "country": "Ukraine",
    "iso2": "UA",
    "admin_name": "Kyyivs’ka Oblast’",
    "capital": "minor",
    "population": "13015",
    "population_proper": "13015",
    "translations": {
      "en": "Tetiiv",
      "ru": "Тетиев",
      "uk": "Тетиїв"
    }
  },
  {
    "city": "Rozhyshche",
    "lat": "50.9131",
    "lng": "25.2700",
    "country": "Ukraine",
    "iso2": "UA",
    "admin_name": "Volyns’ka Oblast’",
    "capital": "",
    "population": "12953",
    "population_proper": "12953",
    "translations": {
      "en": "Rozhyshche",
      "ru": "Рожище",
      "uk": "Рожище"
    }
  },
  {
    "city": "Novhorod-Siverskyi",
    "lat": "51.9833",
    "lng": "33.2667",
    "country": "Ukraine",
    "iso2": "UA",
    "admin_name": "Chernihivs’ka Oblast’",
    "capital": "minor",
    "population": "12862",
    "population_proper": "12862",
    "translations": {
      "en": "Novhorod-Siverskyi",
      "ru": "Новхород-Сиверский",
      "uk": "НОВОХОРОД-Сіверський"
    }
  },
  {
    "city": "Bershad",
    "lat": "48.3728",
    "lng": "29.5325",
    "country": "Ukraine",
    "iso2": "UA",
    "admin_name": "Vinnyts’ka Oblast’",
    "capital": "minor",
    "population": "12795",
    "population_proper": "12795",
    "translations": {
      "en": "Bershad",
      "ru": "Бершад",
      "uk": "Бершад"
    }
  },
  {
    "city": "Perehinske",
    "lat": "48.8103",
    "lng": "24.1819",
    "country": "Ukraine",
    "iso2": "UA",
    "admin_name": "Ivano-Frankivs’ka Oblast’",
    "capital": "",
    "population": "12762",
    "population_proper": "12762",
    "translations": {
      "en": "Perehinske",
      "ru": "Пережин",
      "uk": "Перегінське"
    }
  },
  {
    "city": "Kamianka-Dniprovska",
    "lat": "47.4792",
    "lng": "34.4232",
    "country": "Ukraine",
    "iso2": "UA",
    "admin_name": "Zaporiz’ka Oblast’",
    "capital": "minor",
    "population": "12638",
    "population_proper": "12638",
    "translations": {
      "en": "Kamianka-Dniprovska",
      "ru": "Камянка-Днепровская",
      "uk": "Кам'янка-Дніпровська"
    }
  },
  {
    "city": "Shchastia",
    "lat": "48.7381",
    "lng": "39.2311",
    "country": "Ukraine",
    "iso2": "UA",
    "admin_name": "Luhans’ka Oblast’",
    "capital": "",
    "population": "12629",
    "population_proper": "12629",
    "translations": {
      "en": "Shchastia",
      "ru": "Щастия",
      "uk": "Щастія"
    }
  },
  {
    "city": "Koriukivka",
    "lat": "51.7833",
    "lng": "32.2500",
    "country": "Ukraine",
    "iso2": "UA",
    "admin_name": "Chernihivs’ka Oblast’",
    "capital": "minor",
    "population": "12539",
    "population_proper": "12539",
    "translations": {
      "en": "Koriukivka",
      "ru": "Koriukivka.",
      "uk": "Корюківка"
    }
  },
  {
    "city": "Buchach",
    "lat": "49.0647",
    "lng": "25.3872",
    "country": "Ukraine",
    "iso2": "UA",
    "admin_name": "Ternopil’s’ka Oblast’",
    "capital": "",
    "population": "12511",
    "population_proper": "12511",
    "translations": {
      "en": "Buchach",
      "ru": "Бушач",
      "uk": "Бучач"
    }
  },
  {
    "city": "Kamin-Kashyrskyi",
    "lat": "51.6242",
    "lng": "24.9606",
    "country": "Ukraine",
    "iso2": "UA",
    "admin_name": "Volyns’ka Oblast’",
    "capital": "minor",
    "population": "12489",
    "population_proper": "12489",
    "translations": {
      "en": "Kamin-Kashyrskyi",
      "ru": "Камин-Каширский",
      "uk": "Камін-Каширський"
    }
  },
  {
    "city": "Hnivan",
    "lat": "49.0833",
    "lng": "28.3500",
    "country": "Ukraine",
    "iso2": "UA",
    "admin_name": "Vinnyts’ka Oblast’",
    "capital": "",
    "population": "12433",
    "population_proper": "12433",
    "translations": {
      "en": "Hnivan",
      "ru": "Хнван",
      "uk": "Хніван"
    }
  },
  {
    "city": "Beryslav",
    "lat": "46.8333",
    "lng": "33.4167",
    "country": "Ukraine",
    "iso2": "UA",
    "admin_name": "Khersons’ka Oblast’",
    "capital": "minor",
    "population": "12417",
    "population_proper": "12417",
    "translations": {
      "en": "Beryslav",
      "ru": "Берислав",
      "uk": "Берислав"
    }
  },
  {
    "city": "Vakhrusheve",
    "lat": "48.1606",
    "lng": "38.8389",
    "country": "Ukraine",
    "iso2": "UA",
    "admin_name": "Luhans’ka Oblast’",
    "capital": "",
    "population": "12197",
    "population_proper": "12197",
    "translations": {
      "en": "Vakhrusheve",
      "ru": "Вахруше",
      "uk": "Вахрушевий"
    }
  },
  {
    "city": "Uzyn",
    "lat": "49.8242",
    "lng": "30.4425",
    "country": "Ukraine",
    "iso2": "UA",
    "admin_name": "Kyyivs’ka Oblast’",
    "capital": "",
    "population": "12147",
    "population_proper": "12147",
    "translations": {
      "en": "Uzyn",
      "ru": "Uzyn.",
      "uk": "Uzyn"
    }
  },
  {
    "city": "Bilovodsk",
    "lat": "49.1992",
    "lng": "39.5756",
    "country": "Ukraine",
    "iso2": "UA",
    "admin_name": "Luhans’ka Oblast’",
    "capital": "minor",
    "population": "12000",
    "population_proper": "12000",
    "translations": {
      "en": "Bilovodsk",
      "ru": "Биловодск",
      "uk": "Біловодськ"
    }
  },
  {
    "city": "Mykhailivka",
    "lat": "47.2717",
    "lng": "35.2248",
    "country": "Ukraine",
    "iso2": "UA",
    "admin_name": "Zaporiz’ka Oblast’",
    "capital": "minor",
    "population": "11949",
    "population_proper": "11949",
    "translations": {
      "en": "Mykhailivka",
      "ru": "Михаиливка",
      "uk": "Михайлівка"
    }
  },
  {
    "city": "Horodnia",
    "lat": "51.8833",
    "lng": "31.5833",
    "country": "Ukraine",
    "iso2": "UA",
    "admin_name": "Chernihivs’ka Oblast’",
    "capital": "",
    "population": "11852",
    "population_proper": "11852",
    "translations": {
      "en": "Horodnia",
      "ru": "Городния",
      "uk": "Городянин"
    }
  },
  {
    "city": "Ukrainsk",
    "lat": "48.1000",
    "lng": "37.3667",
    "country": "Ukraine",
    "iso2": "UA",
    "admin_name": "Donets’ka Oblast’",
    "capital": "",
    "population": "11824",
    "population_proper": "11824",
    "translations": {
      "en": "Ukrainsk",
      "ru": "УКРИНСК",
      "uk": "Український"
    }
  },
  {
    "city": "Baranivka",
    "lat": "50.3000",
    "lng": "27.6667",
    "country": "Ukraine",
    "iso2": "UA",
    "admin_name": "Zhytomyrs’ka Oblast’",
    "capital": "",
    "population": "11765",
    "population_proper": "11765",
    "translations": {
      "en": "Baranivka",
      "ru": "Барановка",
      "uk": "Баранівка"
    }
  },
  {
    "city": "Ovidiopol",
    "lat": "46.2667",
    "lng": "30.4333",
    "country": "Ukraine",
    "iso2": "UA",
    "admin_name": "Odes’ka Oblast’",
    "capital": "minor",
    "population": "11741",
    "population_proper": "11741",
    "translations": {
      "en": "Ovidiopol",
      "ru": "Овидиополь",
      "uk": "Овідополь"
    }
  },
  {
    "city": "Vasylkivka",
    "lat": "48.2084",
    "lng": "36.0253",
    "country": "Ukraine",
    "iso2": "UA",
    "admin_name": "Dnipropetrovs’ka Oblast’",
    "capital": "",
    "population": "11738",
    "population_proper": "11738",
    "translations": {
      "en": "Vasylkivka",
      "ru": "Василькивка",
      "uk": "Васильківка"
    }
  },
  {
    "city": "Nemyriv",
    "lat": "48.9794",
    "lng": "28.8439",
    "country": "Ukraine",
    "iso2": "UA",
    "admin_name": "Vinnyts’ka Oblast’",
    "capital": "minor",
    "population": "11697",
    "population_proper": "11697",
    "translations": {
      "en": "Nemyriv",
      "ru": "Немиров",
      "uk": "Немирів"
    }
  },
  {
    "city": "Prymorsk",
    "lat": "46.7333",
    "lng": "36.3596",
    "country": "Ukraine",
    "iso2": "UA",
    "admin_name": "Zaporiz’ka Oblast’",
    "capital": "minor",
    "population": "11679",
    "population_proper": "11679",
    "translations": {
      "en": "Prymorsk",
      "ru": "Примирск",
      "uk": "Приморськ"
    }
  },
  {
    "city": "Mena",
    "lat": "51.5167",
    "lng": "32.2167",
    "country": "Ukraine",
    "iso2": "UA",
    "admin_name": "Chernihivs’ka Oblast’",
    "capital": "",
    "population": "11670",
    "population_proper": "11670",
    "translations": {
      "en": "Mena",
      "ru": "Mena",
      "uk": "Мена"
    }
  },
  {
    "city": "Mala Vyska",
    "lat": "48.6500",
    "lng": "31.6333",
    "country": "Ukraine",
    "iso2": "UA",
    "admin_name": "Kirovohrads’ka Oblast’",
    "capital": "minor",
    "population": "11614",
    "population_proper": "11614",
    "translations": {
      "en": "Mala Vyska",
      "ru": "Мала Выска",
      "uk": "Мала Виска"
    }
  },
  {
    "city": "Kalmiuske",
    "lat": "47.6667",
    "lng": "38.0667",
    "country": "Ukraine",
    "iso2": "UA",
    "admin_name": "Donets’ka Oblast’",
    "capital": "minor",
    "population": "11603",
    "population_proper": "11603",
    "translations": {
      "en": "Kalmiuske",
      "ru": "Калмише",
      "uk": "Калліске"
    }
  },
  {
    "city": "Lokhvytsya",
    "lat": "50.3610",
    "lng": "33.2652",
    "country": "Ukraine",
    "iso2": "UA",
    "admin_name": "Poltavs’ka Oblast’",
    "capital": "",
    "population": "11485",
    "population_proper": "11485",
    "translations": {
      "en": "Lokhvytsya",
      "ru": "ЛОХВИЦЯ",
      "uk": "Лохвиця"
    }
  },
  {
    "city": "Yakymivka",
    "lat": "46.6967",
    "lng": "35.1664",
    "country": "Ukraine",
    "iso2": "UA",
    "admin_name": "Zaporiz’ka Oblast’",
    "capital": "minor",
    "population": "11481",
    "population_proper": "11481",
    "translations": {
      "en": "Yakymivka",
      "ru": "Якимовка",
      "uk": "Якимівка"
    }
  },
  {
    "city": "Myronivka",
    "lat": "49.6500",
    "lng": "30.9833",
    "country": "Ukraine",
    "iso2": "UA",
    "admin_name": "Kyyivs’ka Oblast’",
    "capital": "minor",
    "population": "11478",
    "population_proper": "11478",
    "translations": {
      "en": "Myronivka",
      "ru": "Мионовка",
      "uk": "Миронівка"
    }
  },
  {
    "city": "Snovsk",
    "lat": "51.8167",
    "lng": "31.9500",
    "country": "Ukraine",
    "iso2": "UA",
    "admin_name": "Chernihivs’ka Oblast’",
    "capital": "",
    "population": "11390",
    "population_proper": "11390",
    "translations": {
      "en": "Snovsk",
      "ru": "Сновск",
      "uk": "Сновск"
    }
  },
  {
    "city": "Hirnyk",
    "lat": "48.0500",
    "lng": "37.3667",
    "country": "Ukraine",
    "iso2": "UA",
    "admin_name": "Donets’ka Oblast’",
    "capital": "",
    "population": "11378",
    "population_proper": "11378",
    "translations": {
      "en": "Hirnyk",
      "ru": "Хирникс",
      "uk": "Хірник"
    }
  },
  {
    "city": "Illintsi",
    "lat": "49.1000",
    "lng": "29.2000",
    "country": "Ukraine",
    "iso2": "UA",
    "admin_name": "Vinnyts’ka Oblast’",
    "capital": "minor",
    "population": "11270",
    "population_proper": "11270",
    "translations": {
      "en": "Illintsi",
      "ru": "IlliNtsi.",
      "uk": "Іллінці"
    }
  },
  {
    "city": "Sosnivka",
    "lat": "50.2946",
    "lng": "24.2525",
    "country": "Ukraine",
    "iso2": "UA",
    "admin_name": "L’vivs’ka Oblast’",
    "capital": "",
    "population": "11058",
    "population_proper": "11058",
    "translations": {
      "en": "Sosnivka",
      "ru": "Сосновка",
      "uk": "Соснівка"
    }
  },
  {
    "city": "Zhydachiv",
    "lat": "49.3833",
    "lng": "24.1333",
    "country": "Ukraine",
    "iso2": "UA",
    "admin_name": "L’vivs’ka Oblast’",
    "capital": "minor",
    "population": "10962",
    "population_proper": "10962",
    "translations": {
      "en": "Zhydachiv",
      "ru": "Zhydachiv.",
      "uk": "Жидачів"
    }
  },
  {
    "city": "Rokytne",
    "lat": "49.6897",
    "lng": "30.4751",
    "country": "Ukraine",
    "iso2": "UA",
    "admin_name": "Kyyivs’ka Oblast’",
    "capital": "minor",
    "population": "10938",
    "population_proper": "10938",
    "translations": {
      "en": "Rokytne",
      "ru": "Rokytne.",
      "uk": "Роктивне"
    }
  },
  {
    "city": "Bobrynets",
    "lat": "48.0578",
    "lng": "32.1581",
    "country": "Ukraine",
    "iso2": "UA",
    "admin_name": "Kirovohrads’ka Oblast’",
    "capital": "minor",
    "population": "10898",
    "population_proper": "10898",
    "translations": {
      "en": "Bobrynets",
      "ru": "Бобрынец",
      "uk": "Бобринець"
    }
  },
  {
    "city": "Bobrovytsia",
    "lat": "50.7333",
    "lng": "31.3833",
    "country": "Ukraine",
    "iso2": "UA",
    "admin_name": "Chernihivs’ka Oblast’",
    "capital": "",
    "population": "10894",
    "population_proper": "10894",
    "translations": {
      "en": "Bobrovytsia",
      "ru": "Бобровицсия",
      "uk": "Бобровиця"
    }
  },
  {
    "city": "Manevychi",
    "lat": "51.2925",
    "lng": "25.5503",
    "country": "Ukraine",
    "iso2": "UA",
    "admin_name": "Volyns’ka Oblast’",
    "capital": "",
    "population": "10825",
    "population_proper": "10825",
    "translations": {
      "en": "Manevychi",
      "ru": "Manevychi.",
      "uk": "Маневичі"
    }
  },
  {
    "city": "Hrebinka",
    "lat": "50.1180",
    "lng": "32.4396",
    "country": "Ukraine",
    "iso2": "UA",
    "admin_name": "Poltavs’ka Oblast’",
    "capital": "",
    "population": "10805",
    "population_proper": "10805",
    "translations": {
      "en": "Hrebinka",
      "ru": "Hrebinka",
      "uk": "Гребінка"
    }
  },
  {
    "city": "Baryshivka",
    "lat": "50.3703",
    "lng": "31.3286",
    "country": "Ukraine",
    "iso2": "UA",
    "admin_name": "Kyyivs’ka Oblast’",
    "capital": "",
    "population": "10783",
    "population_proper": "10783",
    "translations": {
      "en": "Baryshivka",
      "ru": "Барышевка",
      "uk": "Баришівка"
    }
  },
  {
    "city": "Khrystynivka",
    "lat": "48.8333",
    "lng": "29.9667",
    "country": "Ukraine",
    "iso2": "UA",
    "admin_name": "Cherkas’ka Oblast’",
    "capital": "",
    "population": "10762",
    "population_proper": "10762",
    "translations": {
      "en": "Khrystynivka",
      "ru": "Христинство",
      "uk": "Христинівка"
    }
  },
  {
    "city": "Ichnia",
    "lat": "50.8500",
    "lng": "32.4000",
    "country": "Ukraine",
    "iso2": "UA",
    "admin_name": "Chernihivs’ka Oblast’",
    "capital": "",
    "population": "10709",
    "population_proper": "10709",
    "translations": {
      "en": "Ichnia",
      "ru": "Ichnia.",
      "uk": "Ічня"
    }
  },
  {
    "city": "Bolekhiv",
    "lat": "49.0669",
    "lng": "23.8514",
    "country": "Ukraine",
    "iso2": "UA",
    "admin_name": "Ivano-Frankivs’ka Oblast’",
    "capital": "",
    "population": "10476",
    "population_proper": "10476",
    "translations": {
      "en": "Bolekhiv",
      "ru": "Болехав",
      "uk": "Болехів"
    }
  },
  {
    "city": "Lyuboml’",
    "lat": "51.2158",
    "lng": "24.0408",
    "country": "Ukraine",
    "iso2": "UA",
    "admin_name": "Volyns’ka Oblast’",
    "capital": "",
    "population": "10466",
    "population_proper": "10466",
    "translations": {
      "en": "Lyuboml’",
      "ru": "Любомль",
      "uk": "Lyuboml '"
    }
  },
  {
    "city": "Olevsk",
    "lat": "51.2278",
    "lng": "27.6481",
    "country": "Ukraine",
    "iso2": "UA",
    "admin_name": "Zhytomyrs’ka Oblast’",
    "capital": "minor",
    "population": "10457",
    "population_proper": "10457",
    "translations": {
      "en": "Olevsk",
      "ru": "Олевск",
      "uk": "Олевськ"
    }
  },
  {
    "city": "Ivankiv",
    "lat": "50.9333",
    "lng": "29.9000",
    "country": "Ukraine",
    "iso2": "UA",
    "admin_name": "Kyyivs’ka Oblast’",
    "capital": "",
    "population": "10439",
    "population_proper": "10439",
    "translations": {
      "en": "Ivankiv",
      "ru": "Иванков",
      "uk": "Іванків"
    }
  },
  {
    "city": "Krasnoilsk",
    "lat": "48.0167",
    "lng": "25.5833",
    "country": "Ukraine",
    "iso2": "UA",
    "admin_name": "Chernivets’ka Oblast’",
    "capital": "",
    "population": "10351",
    "population_proper": "10351",
    "translations": {
      "en": "Krasnoilsk",
      "ru": "Красноилск",
      "uk": "Красноїлськ"
    }
  },
  {
    "city": "Letychiv",
    "lat": "49.3833",
    "lng": "27.6167",
    "country": "Ukraine",
    "iso2": "UA",
    "admin_name": "Khmel’nyts’ka Oblast’",
    "capital": "",
    "population": "10335",
    "population_proper": "10335",
    "translations": {
      "en": "Letychiv",
      "ru": "Леточив",
      "uk": "Летихів"
    }
  },
  {
    "city": "Verkhnodniprovsk",
    "lat": "48.6561",
    "lng": "34.3283",
    "country": "Ukraine",
    "iso2": "UA",
    "admin_name": "Dnipropetrovs’ka Oblast’",
    "capital": "minor",
    "population": "10314",
    "population_proper": "10314",
    "translations": {
      "en": "Verkhnodniprovsk",
      "ru": "Верхмоднипровск",
      "uk": "Верхньодніпровський"
    }
  },
  {
    "city": "Oster",
    "lat": "50.9486",
    "lng": "30.8811",
    "country": "Ukraine",
    "iso2": "UA",
    "admin_name": "Chernihivs’ka Oblast’",
    "capital": "",
    "population": "10245",
    "population_proper": "10245",
    "translations": {
      "en": "Oster",
      "ru": "Oster.",
      "uk": "Остер"
    }
  },
  {
    "city": "Novgorodskoye",
    "lat": "48.3156",
    "lng": "37.8839",
    "country": "Ukraine",
    "iso2": "UA",
    "admin_name": "Donets’ka Oblast’",
    "capital": "",
    "population": "10227",
    "population_proper": "10227",
    "translations": {
      "en": "Novgorodskoye",
      "ru": "Новгородское",
      "uk": "Новгородське"
    }
  },
  {
    "city": "Borzna",
    "lat": "51.2333",
    "lng": "32.4167",
    "country": "Ukraine",
    "iso2": "UA",
    "admin_name": "Chernihivs’ka Oblast’",
    "capital": "",
    "population": "10205",
    "population_proper": "10205",
    "translations": {
      "en": "Borzna",
      "ru": "Борзна",
      "uk": "Бордина"
    }
  },